id,codigoestacion,codigosensor,fechaobservacion,valorobservado,nombreestacion,departamento,municipio,zonahidrografica,latitud,longitud,descripcionsensor,unidadmedida
0,0026155230,0068,2012-01-18T20:00:00.000,0,EMAS - AUT,CALDAS,MANIZALES,CAUCA,5.08525,-75.50713889,Temp Aire 2 m,°C
1,0023125501,0068,2018-08-17T23:55:00.000,19.41672,PAUNA  - AUT,BOYACÁ,PAUNA,MEDIO MAGDALENA,5.657130556,-73.96032778,Temp Aire 2 m,°C
2,0026145090,0068,2018-02-03T00:00:00.000,16.3,SANTA EMILIA - AUT,RISARALDA,BELÉN DE UMBRÍA,CAUCA,5.207472222,-75.90294444,Temp Aire 2 m,°C
3,0023065503,0068,2016-07-09T07:10:00.000,20.2,EL MIRADOR  - AUT,CUNDINAMARCA,SASAIMA,MEDIO MAGDALENA,4.95,-74.4,Temp Aire 2 m,°C
4,0021202180,0068,2013-09-29T15:15:00.000,16.2,QUIBA - FOPAE,BOGOTA D.C.,"BOGOTA, D.C",ALTO MAGDALENA,4.543,-74.156,Temp Aire 2 m,°C
5,2120700037,0068,2019-05-10T18:58:00.000,15.7,CASAS FISCALES ESCUELA DE ARTILLERÍA - AUT,BOGOTA D.C.,"BOGOTA, D.C",ALTO MAGDALENA,4.556,-74.125,Temp Aire 2 m,°C
6,0021215180,0068,2011-09-10T13:00:00.000,25.5,BATALLON ROOKE  - AUT,TOLIMA,IBAGUÉ,ALTO MAGDALENA,4.418388889,-75.24866667,Temp Aire 2 m,°C
7,0023085501,0068,2016-07-28T20:40:00.000,19.8,COCORNA  - AUT,ANTIOQUIA,COCORNÁ,MEDIO MAGDALENA,6.061941667,-75.18666667,Temp Aire 2 m,°C
8,0021015070,0068,2016-09-11T18:00:00.000,14.8,LOS GUACHAROS  - AUT,HUILA,PALESTINA,ALTO MAGDALENA,1.675833,-76.106841,Temp Aire 2 m,°C
9,0021202230,0068,2015-05-09T21:30:00.000,14.6,UAN SEDE USME - FOPAE,BOGOTA D.C.,"BOGOTA, D.C",ALTO MAGDALENA,4.467,-74.117,Temp Aire 2 m,°C
10,0026115501,0068,2019-06-09T11:05:00.000,25.61687,MANUEL MARIA MALLARINO  - AUT,VALLE DEL CAUCA,TRUJILLO,CAUCA,4.213611111,-76.31497222,Temp Aire 2 m,°C
11,0026155502,0068,2019-03-07T04:45:00.000,20.09708,CENICAFE  - AUT,CALDAS,MANIZALES,CAUCA,4.991111111,-75.59749722,Temp Aire 2 m,°C
12,0026155505,0068,2017-04-23T15:35:00.000,33.4,GRANJA LUKER  - AUT,CALDAS,PALESTINA,CAUCA,5.070275,-75.68555278,Temp Aire 2 m,°C
13,0021208480,0068,2015-04-29T02:00:00.000,14.7,KENNEDY - FOPAE,BOGOTA D.C.,"BOGOTA, D.C",ALTO MAGDALENA,4.633,-74.15,Temp Aire 2 m,°C
14,2120000102,0068,2019-02-05T14:19:00.000,18.26,COLEGIO CARLOS PIZARRO - AUT,BOGOTA D.C.,"BOGOTA, D.C",ALTO MAGDALENA,4.635,-74.205,Temp Aire 2 m,°C
15,0053115501,0068,2019-07-28T23:10:00.000,18.6876,DAGUA  - AUT,VALLE DEL CAUCA,DAGUA,TAPAJE - DAGUA - DIRECTOS,3.610441667,-76.63785833,Temp Aire 2 m,°C
16,0052035040,0068,2009-11-28T01:00:00.000,21.3,VIENTO LIBRE - AUT,NARIÑO,TAMINANGO,PATÍA,1.6185,-77.34361111,Temp Aire 2 m,°C
17,0026015010,0068,2007-08-26T06:00:00.000,15.2,EL TABLAZO - AUT,CAUCA,POPAYÁN,CAUCA,2.474833056,-76.58129361,Temp Aire 2 m,°C
18,0026135330,0068,2019-04-20T11:00:00.000,10.5,LA LAGUNA DEL OTUN  - AUT,RISARALDA,PEREIRA,CAUCA,4.776361111,-75.4125,Temp Aire 2 m,°C
19,0021055501,0068,2017-09-13T22:55:00.000,18.0792,SIMON CAMPOS  - AUT,HUILA,LA PLATA,ALTO MAGDALENA,2.345830556,-75.87805556,Temp Aire 2 m,°C
20,0026155260,0068,2016-09-20T23:00:00.000,2.3,SENDERO LAGUNA VERDE  - AUT,CALDAS,VILLAMARIA,CAUCA,4.840666667,-75.36161111,Temp Aire 2 m,°C
21,0052015501,0068,2018-01-22T22:30:00.000,17.6001,BALBOA  - AUT,CAUCA,BALBOA,PATÍA,2.125191667,-77.19266667,Temp Aire 2 m,°C
22,0026225060,0068,2015-06-05T21:00:00.000,24.4,HACIENDA COTOVE - AUT,ANTIOQUIA,SANTA FE DE ANTIOQUIA,CAUCA,6.533916667,-75.82733333,Temp Aire 2 m,°C
23,0021237060,0068,2019-05-15T22:00:00.000,22.284,CORRALITOS PULI,CUNDINAMARCA,PULÍ,ALTO MAGDALENA,4.633,-74.65,Temp Aire 2 m,°C
24,0054035501,0068,2018-02-24T21:35:00.000,15.61811,SANTIAGO GUTIERREZ  - AUT,VALLE DEL CAUCA,ARGELIA,SAN JUÁN,4.726388889,-76.11446944,Temp Aire 2 m,°C
25,0021201200,0068,2011-01-09T01:00:00.000,9.27,ESC LA UNION - FOPAE,BOGOTA D.C.,"BOGOTA, D.C",ALTO MAGDALENA,4.343,-74.184,Temp Aire 2 m,°C
26,0026165501,0068,2018-04-13T12:45:00.000,26.54986,EL CIPRES  - AUT,CALDAS,SALAMINA,CAUCA,5.433333333,-75.5,Temp Aire 2 m,°C
27,2120000105,0068,2019-06-28T08:55:00.000,12.47,EL CODITO - AUT,BOGOTA D.C.,"BOGOTA, D.C",ALTO MAGDALENA,4.763,-74.022,Temp Aire 2 m,°C
28,0016015502,0068,2017-05-12T05:35:00.000,17.6,BLONAY  - AUT,NORTE DE SANTANDER,CHINÁCOTA,CATATUMBO,7.564997222,-72.62110833,Temp Aire 2 m,°C
29,0026145503,0068,2017-02-27T12:00:00.000,24.6,ANSERMA  - AUT,CALDAS,ANSERMA,CAUCA,5.231330556,-75.77961667,Temp Aire 2 m,°C
30,0052045080,0068,2007-01-05T01:00:00.000,11.6,UNIVERSIDAD DE NARINO  - AUT,NARIÑO,PASTO,PATÍA,1.225111111,-77.28338889,Temp Aire 2 m,°C
31,2120000105,0068,2019-02-28T14:21:00.000,16.68,EL CODITO - AUT,BOGOTA D.C.,"BOGOTA, D.C",ALTO MAGDALENA,4.763,-74.022,Temp Aire 2 m,°C
32,0037015030,0068,2009-07-05T07:00:00.000,6.6,BERLIN - AUT,SANTANDER,TONA,ARAUCA,7.187,-72.8685,Temp Aire 2 m,°C
33,0021202250,0068,2013-04-24T02:05:00.000,14.1,DOÑA JUANA - FOPAE,BOGOTA D.C.,"BOGOTA, D.C",ALTO MAGDALENA,4.5,-74.133,Temp Aire 2 m,°C
34,0023190700,0068,2019-05-01T07:00:00.000,20.8,PIEDECUESTA GRANJA,SANTANDER,PIEDECUESTA,MEDIO MAGDALENA,6.993333333,-73.06777778,Temp Aire 2 m,°C
35,0035025080,0068,2014-03-20T19:00:00.000,9.1,PNN CHINGAZA - AUT,CUNDINAMARCA,LA CALERA,META,4.661,-73.82733333,Temp Aire 2 m,°C
36,0022045502,0068,2018-09-18T19:10:00.000,20.72489,EL RUBY  - AUT,TOLIMA,PLANADAS,SALDAÑA,3.95,-75.66666667,Temp Aire 2 m,°C
37,0021015502,0068,2017-05-20T09:25:00.000,21.7,SAN AGUSTIN  - AUT,HUILA,SAN AGUSTÍN,ALTO MAGDALENA,1.851416667,-76.30433056,Temp Aire 2 m,°C
38,0035025110,0068,2018-10-04T21:00:00.000,24.8,LA LIBERTAD - AUT,META,VILLAVICENCIO,META,4.057361111,-73.46791667,Temp Aire 2 m,°C
39,2120000106,0068,2019-01-22T09:26:00.000,10.18,GRAN BRETAÑA - AUT,BOGOTA D.C.,"BOGOTA, D.C",ALTO MAGDALENA,4.512,-74.164,Temp Aire 2 m,°C
40,0021202220,0068,2012-05-08T23:40:00.000,14.2,PARAISO - FOPAE,BOGOTA D.C.,"BOGOTA, D.C",ALTO MAGDALENA,4.617,-74.05,Temp Aire 2 m,°C
41,0021206940,0068,2008-10-04T09:00:00.000,15.2,CIUDAD BOLIVAR,BOGOTA D.C.,"BOGOTA, D.C",ALTO MAGDALENA,4.577,-74.177,Temp Aire 2 m,°C
42,0021085501,0068,2019-02-18T16:15:00.000,26.22671,TERUEL  - AUT,HUILA,TERUEL,ALTO MAGDALENA,2.762997222,-75.61144167,Temp Aire 2 m,°C
43,0016015120,0068,2013-12-23T07:00:00.000,10.3,UNIVERSIDAD DE PAMPLONA  - AUT,NORTE DE SANTANDER,PAMPLONA,CATATUMBO,7.360944444,-72.66605556,Temp Aire 2 m,°C
44,0015085050,0068,2011-02-24T14:00:00.000,26.1,TOROMANA - AUT,LA GUAJIRA,URIBIA,CARIBE - GUAJIRA,12.08352778,-71.21094444,Temp Aire 2 m,°C
45,0016055501,0068,2019-07-21T06:00:00.000,17.27189,GABRIEL MARIA  - AUT,NORTE DE SANTANDER,CONVENCIÓN,CATATUMBO,8.412497222,-73.33944167,Temp Aire 2 m,°C
46,0026125290,0068,2006-01-06T21:00:00.000,17.2,ARMENIA - AUT,QUINDÍO,ARMENIA,CAUCA,4.531583333,-75.69069444,Temp Aire 2 m,°C
47,0026125504,0068,2019-05-05T04:00:00.000,19.84608,PARAGUAICITO  - AUT,QUINDÍO,BUENAVISTA,CAUCA,4.395555556,-75.73416667,Temp Aire 2 m,°C
48,0021215150,0068,2010-04-16T08:00:00.000,1.7,NEVADO DEL TOLIMA  - AUT,TOLIMA,ANZOÁTEGUI,ALTO MAGDALENA,4.670777778,-75.32777778,Temp Aire 2 m,°C
49,0025025002,0068,2016-07-25T06:00:00.000,22.5,LOS ALAMOS,MAGDALENA,SAN SEBASTIÁN DE BUENAVISTA,BAJO MAGDALENA,9.304,-74.274,Temp Aire 2 m,°C
50,0013055040,0068,2006-01-24T18:00:00.000,29.8,INCODER - AUT,CORDOBA,MONTERÍA,SINÚ,8.746944444,-75.91388889,Temp Aire 2 m,°C
51,0026085170,0068,2013-11-17T19:00:00.000,25.5,BASE AEREA MARCO FIDEL SUAREZ  - AUT,VALLE DEL CAUCA,CALI,CAUCA,3.4545,-76.49972222,Temp Aire 2 m,°C
52,0021215501,0068,2019-08-07T01:00:00.000,16.78306,ESPERANZA LA  - AUT,TOLIMA,IBAGUÉ,ALTO MAGDALENA,4.45,-75.25,Temp Aire 2 m,°C
53,0024015501,0068,2017-06-04T02:05:00.000,14.92578,BERTHA  - AUT,BOYACÁ,MONIQUIRÁ,SOGAMOSO,5.882777778,-73.57333056,Temp Aire 2 m,°C
54,0016040050,0068,2019-06-10T03:00:00.000,14.8,LA MARIA - AUT,NORTE DE SANTANDER,ÁBREGO,CATATUMBO,7.934444444,-73.21166667,Temp Aire 2 m,°C
55,0021185501,0068,2018-11-05T15:35:00.000,20.67853,ROVIRA  - AUT,TOLIMA,ROVIRA,ALTO MAGDALENA,4.266666667,-75.28305556,Temp Aire 2 m,°C
56,0021206780,0068,2013-04-24T01:20:00.000,15.5,LA INDEPENDENCIA FOPAE Fuera de Servicio,BOGOTA D.C.,"BOGOTA, D.C",ALTO MAGDALENA,4.617,-74.317,Temp Aire 2 m,°C
57,0027015290,0068,2018-08-21T14:00:00.000,24.2,PAJARITO - AUT,ANTIOQUIA,MEDELLÍN,NECHÍ,6.286333333,-75.61279167,Temp Aire 2 m,°C
58,0026145501,0068,2019-08-19T05:30:00.000,17.30708,APIA  - AUT,RISARALDA,APÍA,CAUCA,5.105055556,-75.93305556,Temp Aire 2 m,°C
59,0026155240,0068,2008-07-29T17:00:00.000,9.6,PNN NEVADOS - AUT,CALDAS,VILLAMARIA,CAUCA,4.859444444,-75.38241667,Temp Aire 2 m,°C
60,0026165501,0068,2018-03-18T09:40:00.000,20.2428,EL CIPRES  - AUT,CALDAS,SALAMINA,CAUCA,5.433333333,-75.5,Temp Aire 2 m,°C
61,0013085050,0068,2006-01-31T13:00:00.000,32.4,LORICA ITA - En Siniestro,CÓRDOBA,LORICA,SINÚ,9.253,-75.844,Temp Aire 2 m,°C
62,0021085501,0068,2019-04-14T18:15:00.000,21.91832,TERUEL  - AUT,HUILA,TERUEL,ALTO MAGDALENA,2.762997222,-75.61144167,Temp Aire 2 m,°C
63,0054050010,0068,2018-12-13T02:00:00.000,25,PR CHOCO: NOANAMA,CHOCÓ,ISTMINA,SAN JUÁN,4.717,-76.917,Temp Aire 2 m,°C
64,0026035100,0068,2008-05-07T06:00:00.000,14.1,SUECIA HDA,CAUCA,EL TAMBO,CAUCA,2.48,-76.828,Temp Aire 2 m,°C
65,0023065190,0068,2010-09-28T21:00:00.000,22.1,QUEBRADA NEGRA - AUT,CUNDINAMARCA,QUEBRADANEGRA,MEDIO MAGDALENA,5.137611111,-74.48125,Temp Aire 2 m,°C
66,0026145507,0068,2019-05-09T21:20:00.000,17.9573,LAS TANGAS  - AUT,CALDAS,BELALCAZAR,CAUCA,5.038,-75.80599722,Temp Aire 2 m,°C
67,0021202220,0068,2013-10-19T10:10:00.000,28.5,PARAISO - FOPAE,BOGOTA D.C.,"BOGOTA, D.C",ALTO MAGDALENA,4.617,-74.05,Temp Aire 2 m,°C
68,0026135503,0068,2018-04-21T14:00:00.000,29.72625,NARANJAL  - AUT,CALDAS,CHINCHINA,CAUCA,4.971944444,-75.65221944,Temp Aire 2 m,°C
69,0024015501,0068,2016-08-26T09:30:00.000,20.6,BERTHA  - AUT,BOYACÁ,MONIQUIRÁ,SOGAMOSO,5.882777778,-73.57333056,Temp Aire 2 m,°C
70,0026225060,0068,2014-03-31T22:00:00.000,29.9,HACIENDA COTOVE - AUT,ANTIOQUIA,SANTA FE DE ANTIOQUIA,CAUCA,6.533916667,-75.82733333,Temp Aire 2 m,°C
71,0052055150,0068,2010-04-16T13:00:00.000,9.6,CERRO PARAMO  - AUT,NARIÑO,PUERRES,PATÍA,0.843111111,-77.38880556,Temp Aire 2 m,°C
72,0035027510,0068,2018-01-31T15:00:00.000,19.2,CALOSTROS BAJO - AUT,CUNDINAMARCA,LA CALERA,META,4.6645,-73.863083333,Temp Aire 2 m,°C
73,0024015501,0068,2019-07-09T09:35:00.000,20.59422,BERTHA  - AUT,BOYACÁ,MONIQUIRÁ,SOGAMOSO,5.882777778,-73.57333056,Temp Aire 2 m,°C
74,0035025501,0068,2017-07-19T20:50:00.000,16.15257,QUETAME  - AUT,CUNDINAMARCA,QUETAME,META,4.297941667,-73.87238889,Temp Aire 2 m,°C
75,0026145504,0068,2017-06-03T17:45:00.000,22.07297,OSPIRMA  - AUT,RISARALDA,GUÁTICA,CAUCA,5.325552778,-75.812775,Temp Aire 2 m,°C
76,0036015020,0068,2009-01-25T05:00:00.000,21,EL DIAMANTE - AUT,CASANARE,PAZ DE ARIPORO,META,5.816194444,-71.41983333,Temp Aire 2 m,°C
77,0023085501,0068,2019-05-12T07:55:00.000,20.04236,COCORNA  - AUT,ANTIOQUIA,COCORNÁ,MEDIO MAGDALENA,6.061941667,-75.18666667,Temp Aire 2 m,°C
78,0027015501,0068,2018-05-18T12:20:00.000,23.22544,YOLOMBO  - AUT,ANTIOQUIA,YOLOMBÓ,NECHÍ,6.580958333,-75.11487778,Temp Aire 2 m,°C
79,0026155230,0068,2018-05-25T23:00:00.000,16.3,EMAS - AUT,CALDAS,MANIZALES,CAUCA,5.08525,-75.50713889,Temp Aire 2 m,°C
80,0026145501,0068,2018-05-06T02:30:00.000,16.09272,APIA  - AUT,RISARALDA,APÍA,CAUCA,5.105055556,-75.93305556,Temp Aire 2 m,°C
81,0026155505,0068,2017-05-27T14:15:00.000,29.8,GRANJA LUKER  - AUT,CALDAS,PALESTINA,CAUCA,5.070275,-75.68555278,Temp Aire 2 m,°C
82,2120000107,0068,2019-02-02T05:45:00.000,9.76,LA FISCALA - AUT,BOGOTA D.C.,"BOGOTA, D.C",ALTO MAGDALENA,4.536,-74.106,Temp Aire 2 m,°C
83,0054035501,0068,2018-06-02T20:50:00.000,18.85179,SANTIAGO GUTIERREZ  - AUT,VALLE DEL CAUCA,ARGELIA,SAN JUÁN,4.726388889,-76.11446944,Temp Aire 2 m,°C
84,0026135320,0068,2019-04-20T03:00:00.000,1.3,NEVADO SANTA ISABEL  - AUT,CALDAS,VILLAMARIA,CAUCA,4.802611111,-75.38047222,Temp Aire 2 m,°C
85,0021205521,0068,2019-06-24T13:20:00.000,12.565,SANTA HELENA  - AUT,CUNDINAMARCA,LA CALERA,ALTO MAGDALENA,4.738,-73.936,Temp Aire 2 m,°C
86,0024015507,0068,2019-02-06T19:50:00.000,11.233,OJO DE AGUA  - AUT,CUNDINAMARCA,SIMIJACA,SOGAMOSO,5.392,-73.854,Temp Aire 2 m,°C
87,0011025501,0068,2017-12-06T23:10:00.000,17.59936,CARMEN DE ATRATO  - AUT,CHOCO,EL CARMEN,ATRATO - DARIÉN,5.888719444,-76.14516667,Temp Aire 2 m,°C
88,0023125501,0068,2018-03-20T11:00:00.000,22.66222,PAUNA  - AUT,BOYACÁ,PAUNA,MEDIO MAGDALENA,5.657130556,-73.96032778,Temp Aire 2 m,°C
89,0011025501,0068,2017-07-19T02:20:00.000,16.38958,CARMEN DE ATRATO  - AUT,CHOCO,EL CARMEN,ATRATO - DARIÉN,5.888719444,-76.14516667,Temp Aire 2 m,°C
90,0054077210,0068,2008-04-02T16:00:00.000,28.3,JUANCHACO - AUT,VALLE DEL CAUCA,BUENAVENTURA,SAN JUÁN,3.925147222,-77.34900556,Temp Aire 2 m,°C
91,0021055501,0068,2019-04-25T09:00:00.000,19.55796,SIMON CAMPOS  - AUT,HUILA,LA PLATA,ALTO MAGDALENA,2.345830556,-75.87805556,Temp Aire 2 m,°C
92,0021201980,0068,2013-01-06T02:20:00.000,9.4,CERRO GUADALUPE - FOPAE,BOGOTA D.C.,"BOGOTA, D.C",ALTO MAGDALENA,4.567,-74.05,Temp Aire 2 m,°C
93,0026145504,0068,2019-03-29T10:55:00.000,21.5556,OSPIRMA  - AUT,RISARALDA,GUÁTICA,CAUCA,5.325552778,-75.812775,Temp Aire 2 m,°C
94,0026125505,0068,2017-11-07T06:55:00.000,18.25705,LA BELLA  - AUT,QUINDÍO,CALARCÁ,CAUCA,4.501111111,-75.67138889,Temp Aire 2 m,°C
95,0023015501,0068,2017-05-14T20:30:00.000,21.1,FRESNO  - AUT,TOLIMA,FRESNO,MEDIO MAGDALENA,5.155638889,-75.00313611,Temp Aire 2 m,°C
96,0035025110,0068,2017-08-14T21:00:00.000,26.2,LA LIBERTAD - AUT,META,VILLAVICENCIO,META,4.057361111,-73.46791667,Temp Aire 2 m,°C
97,0023035030,0068,2018-09-07T04:00:00.000,23,BASE PALANQUERO  - AUT,CUNDINAMARCA,PUERTO SALGAR,MEDIO MAGDALENA,5.492861111,-74.658,Temp Aire 2 m,°C
98,0023015501,0068,2017-10-31T17:40:00.000,20.67748,FRESNO  - AUT,TOLIMA,FRESNO,MEDIO MAGDALENA,5.155638889,-75.00313611,Temp Aire 2 m,°C
99,0029015040,0068,2007-09-25T13:00:00.000,30.7,CARMEN DE BOLIVAR  - AUT,BOLIVAR,EL CARMÉN DE BOLÍVAR,BAJO MAGDALENA,9.71575,-75.10641667,Temp Aire 2 m,°C
100,2120000104,0068,2019-03-08T07:39:00.000,10.18,COLEGIO MIGUEL ANTONIO CARO - AUT,BOGOTA D.C.,"BOGOTA, D.C",ALTO MAGDALENA,4.813,-74.031,Temp Aire 2 m,°C
101,0053115502,0068,2017-11-03T04:25:00.000,17.34283,JULIO FERNANDEZ  - AUT,VALLE DEL CAUCA,RESTREPO,TAPAJE - DAGUA - DIRECTOS,3.809163889,-76.53305556,Temp Aire 2 m,°C
102,0026125505,0068,2018-07-28T10:50:00.000,22.25571,LA BELLA  - AUT,QUINDÍO,CALARCÁ,CAUCA,4.501111111,-75.67138889,Temp Aire 2 m,°C
103,0048015010,0068,2018-06-19T23:00:00.000,21.7,APTO VASQUEZ COBO TX GPRS/GOES,AMAZONAS,LETICIA,<nil>,-4.194,-69.941,Temp Aire 2 m,°C
104,2120000105,0068,2018-11-14T08:35:00.000,13.09,EL CODITO - AUT,BOGOTA D.C.,"BOGOTA, D.C",ALTO MAGDALENA,4.763,-74.022,Temp Aire 2 m,°C
105,0024025501,0068,2017-11-30T12:40:00.000,25.7528,ALBERTO SANTOS  - AUT,SANTANDER,SOCORRO,SOGAMOSO,6.493052778,-73.22111111,Temp Aire 2 m,°C
106,0021085501,0068,2018-03-13T01:30:00.000,19.38339,TERUEL  - AUT,HUILA,TERUEL,ALTO MAGDALENA,2.762997222,-75.61144167,Temp Aire 2 m,°C
107,0052055210,0068,2014-11-04T00:00:00.000,11,BOTANA - AUT,NARIÑO,PASTO,PATÍA,1.16,-77.27880556,Temp Aire 2 m,°C
108,2120000106,0068,2019-05-22T22:04:00.000,9.33,GRAN BRETAÑA - AUT,BOGOTA D.C.,"BOGOTA, D.C",ALTO MAGDALENA,4.512,-74.164,Temp Aire 2 m,°C
109,0011025501,0068,2017-10-20T23:25:00.000,18.24723,CARMEN DE ATRATO  - AUT,CHOCO,EL CARMEN,ATRATO - DARIÉN,5.888719444,-76.14516667,Temp Aire 2 m,°C
110,0026135503,0068,2019-02-06T21:05:00.000,22.45935,NARANJAL  - AUT,CALDAS,CHINCHINA,CAUCA,4.971944444,-75.65221944,Temp Aire 2 m,°C
111,0023195230,0068,2017-10-09T09:00:00.000,24.5,NEOMUNDO - AUT,SANTANDER,BUCARAMANGA,MEDIO MAGDALENA,7.102611111,-73.10730556,Temp Aire 2 m,°C
112,0021205516,0068,2018-11-14T22:00:00.000,14.754,NEGRETE  - AUT,CUNDINAMARCA,PACHO,ALTO MAGDALENA,5.173,-73.852,Temp Aire 2 m,°C
113,0021202180,0068,2012-06-02T09:10:00.000,14.5,QUIBA - FOPAE,BOGOTA D.C.,"BOGOTA, D.C",ALTO MAGDALENA,4.543,-74.156,Temp Aire 2 m,°C
114,0021255170,0068,2013-11-26T19:00:00.000,10.4,MURILLO - AUT,TOLIMA,MURILLO,ALTO MAGDALENA,4.870555556,-75.17327778,Temp Aire 2 m,°C
115,2403500085,0068,2019-07-24T23:00:00.000,12.1,SUSA - AUT,SANTANDER,ONZAGA,SOGAMOSO,6.187794444,-72.835602778,Temp Aire 2 m,°C
116,0024035410,0068,2018-03-02T10:27:00.000,43.5,SOGAMOSO - AUT,BOYACÁ,SOGAMOSO,SOGAMOSO,5.753333333,-72.91115278,Temp Aire 2 m,°C
117,0021206810,0068,2013-11-23T21:15:00.000,16.8,SAN BENITO - FOPAE,BOGOTA D.C.,"BOGOTA, D.C",ALTO MAGDALENA,4.55,-74.233,Temp Aire 2 m,°C
118,0021202220,0068,2012-07-31T08:40:00.000,25.7,PARAISO - FOPAE,BOGOTA D.C.,"BOGOTA, D.C",ALTO MAGDALENA,4.617,-74.05,Temp Aire 2 m,°C
119,0016055501,0068,2016-07-12T13:10:00.000,26.5,GABRIEL MARIA  - AUT,NORTE DE SANTANDER,CONVENCIÓN,CATATUMBO,8.412497222,-73.33944167,Temp Aire 2 m,°C
120,0026085170,0068,2008-10-01T10:00:00.000,25.7,BASE AEREA MARCO FIDEL SUAREZ  - AUT,VALLE DEL CAUCA,CALI,CAUCA,3.4545,-76.49972222,Temp Aire 2 m,°C
121,0035225030,0068,2019-05-08T23:00:00.000,23.6,PERENCO: MODULOS,CASANARE,OROCUÉ,META,4.91,-71.433,Temp Aire 2 m,°C
122,0026175502,0068,2017-07-12T13:10:00.000,31.02381,LA CRISTALINA  - AUT,ANTIOQUIA,TÁMESIS,CAUCA,5.7,-75.65999722,Temp Aire 2 m,°C
123,0036015501,0068,2017-11-08T22:55:00.000,20.51854,TAMARA  - AUT,CASANARE,TÁMARA,CASANARE,5.872219444,-72.11944167,Temp Aire 2 m,°C
124,0026125509,0068,2016-09-07T18:25:00.000,17.8,ESPERANZA LA  - AUT,QUINDÍO,PIJAO,CAUCA,4.299444444,-75.72508056,Temp Aire 2 m,°C
125,0026055100,0068,2019-03-02T12:00:00.000,22.6,FARALLONES - AUT,VALLE DEL CAUCA,CALI,CAUCA,3.416055556,-76.6515,Temp Aire 2 m,°C
126,0024035360,0068,2013-10-28T02:00:00.000,12.7,SOCHA - AUT,BOYACÁ,SOCHA,SOGAMOSO,5.985416667,-72.99702778,Temp Aire 2 m,°C
127,0021202250,0068,2015-02-23T00:20:00.000,12.6,DOÑA JUANA - FOPAE,BOGOTA D.C.,"BOGOTA, D.C",ALTO MAGDALENA,4.5,-74.133,Temp Aire 2 m,°C
128,0026135300,0068,2003-07-07T18:59:05.000,0,PNN QUIMBAYA - AUT,RISARALDA,PEREIRA,CAUCA,4.761916667,-75.74491667,Temp Aire 2 m,°C
129,0021202220,0068,2012-04-21T07:35:00.000,15,PARAISO - FOPAE,BOGOTA D.C.,"BOGOTA, D.C",ALTO MAGDALENA,4.617,-74.05,Temp Aire 2 m,°C
130,0035215020,0068,2012-04-29T12:00:00.000,31.4,APTO YOPAL,CASANARE,YOPAL,META,5.32,-72.388,Temp Aire 2 m,°C
131,0023025502,0068,2018-03-20T11:15:00.000,8.571178,ALMACAFE LETRAS  - AUT,CALDAS,MANIZALES,MEDIO MAGDALENA,5.044997222,-75.33221944,Temp Aire 2 m,°C
132,0026145505,0068,2019-04-30T11:40:00.000,29.57733,LA FLORESTA  - AUT,CALDAS,BELALCAZAR,CAUCA,4.979219444,-75.83555556,Temp Aire 2 m,°C
133,0052015501,0068,2019-02-24T02:50:00.000,16.26794,BALBOA  - AUT,CAUCA,BALBOA,PATÍA,2.125191667,-77.19266667,Temp Aire 2 m,°C
134,0021202180,0068,2011-02-15T06:30:00.000,12.7,QUIBA - FOPAE,BOGOTA D.C.,"BOGOTA, D.C",ALTO MAGDALENA,4.543,-74.156,Temp Aire 2 m,°C
135,0021206780,0068,2014-03-23T21:00:00.000,15.4,LA INDEPENDENCIA FOPAE Fuera de Servicio,BOGOTA D.C.,"BOGOTA, D.C",ALTO MAGDALENA,4.617,-74.317,Temp Aire 2 m,°C
136,0026085170,0068,2007-08-07T16:00:00.000,26.5,BASE AEREA MARCO FIDEL SUAREZ  - AUT,VALLE DEL CAUCA,CALI,CAUCA,3.4545,-76.49972222,Temp Aire 2 m,°C
137,0026065501,0068,2018-10-08T04:00:00.000,14.80632,JAMUNDI  - AUT,VALLE DEL CAUCA,JAMUNDÍ,CAUCA,3.215580556,-76.68021944,Temp Aire 2 m,°C
138,2120000104,0068,2019-08-18T15:05:00.000,17.4,COLEGIO MIGUEL ANTONIO CARO - AUT,BOGOTA D.C.,"BOGOTA, D.C",ALTO MAGDALENA,4.813,-74.031,Temp Aire 2 m,°C
139,2120000104,0068,2019-05-12T06:45:00.000,11.16,COLEGIO MIGUEL ANTONIO CARO - AUT,BOGOTA D.C.,"BOGOTA, D.C",ALTO MAGDALENA,4.813,-74.031,Temp Aire 2 m,°C
140,0026145508,0068,2017-11-03T16:10:00.000,20.95373,SAN JOSE  - AUT,CALDAS,SAN JOSE,CAUCA,5.094972222,-75.79174722,Temp Aire 2 m,°C
141,0037015501,0068,2018-05-20T10:30:00.000,11.16613,LABATECA  - AUT,NORTE DE SANTANDER,LABATECA,ARAUCA,7.296058333,-72.49772778,Temp Aire 2 m,°C
142,0026185030,0068,2009-06-12T22:00:00.000,15.4,JERICO - AUT,ANTIOQUIA,JERICÓ,CAUCA,5.799166667,-75.78952778,Temp Aire 2 m,°C
143,0026195502,0068,2016-08-27T00:40:00.000,17.7,CIUDAD BOLIVAR  - AUT,ANTIOQUIA,CIUDAD BOLÍVAR,CAUCA,5.868666667,-75.99044167,Temp Aire 2 m,°C
144,0024035410,0068,2018-05-22T10:17:00.000,3.7,SOGAMOSO - AUT,BOYACÁ,SOGAMOSO,SOGAMOSO,5.753333333,-72.91115278,Temp Aire 2 m,°C
145,0029045190,0068,2014-05-03T18:00:00.000,28.5,APTO ERNESTO CORTIZOS TX GPRS,ATLÁNTICO,SOLEDAD,BAJO MAGDALENA,10.918,-74.78,Temp Aire 2 m,°C
146,0026145507,0068,2017-08-30T05:15:00.000,16.75342,LAS TANGAS  - AUT,CALDAS,BELALCAZAR,CAUCA,5.038,-75.80599722,Temp Aire 2 m,°C
147,0026085501,0068,2018-08-05T08:20:00.000,15.45779,LA CELIA  - AUT,RISARALDA,LA CELIA,CAUCA,5.001330556,-75.998,Temp Aire 2 m,°C
148,0021206810,0068,2016-04-16T16:55:00.000,20.5,SAN BENITO - FOPAE,BOGOTA D.C.,"BOGOTA, D.C",ALTO MAGDALENA,4.55,-74.233,Temp Aire 2 m,°C
149,0021202240,0068,2011-06-22T22:20:00.000,16.1,UAN SEDE CIRCUNVALAR - FOPAE,BOGOTA D.C.,"BOGOTA, D.C",ALTO MAGDALENA,4.633,-74.05,Temp Aire 2 m,°C
150,0028025120,0068,2008-03-29T04:00:00.000,13.4,SERRANIA DEL PERIJA  - AUT,CESAR,AGUSTÍN CODAZZI,CESAR,10.02908333,-73.04619444,Temp Aire 2 m,°C
151,0024015504,0068,2019-02-14T06:00:00.000,11.2,RAQUIRA - CAR,BOYACÁ,RÁQUIRA,SOGAMOSO,5.536,-73.641,Temp Aire 2 m,°C
152,0035085060,0068,2016-03-19T06:00:00.000,18.7,ZETAQUIRA - AUT,BOYACÁ,ZETAQUIRÁ,META,5.294944444,-73.16994444,Temp Aire 2 m,°C
153,0052055502,0068,2017-11-27T22:50:00.000,17.03045,SANDONA  - AUT,NARIÑO,SANDONÁ,PATÍA,1.300888889,-77.46035833,Temp Aire 2 m,°C
154,0026145505,0068,2018-08-18T04:55:00.000,18.76932,LA FLORESTA  - AUT,CALDAS,BELALCAZAR,CAUCA,4.979219444,-75.83555556,Temp Aire 2 m,°C
155,0026125290,0068,2016-12-24T14:00:00.000,26.1,ARMENIA - AUT,QUINDÍO,ARMENIA,CAUCA,4.531583333,-75.69069444,Temp Aire 2 m,°C
156,0021201980,0068,2014-06-26T21:50:00.000,9.5,CERRO GUADALUPE - FOPAE,BOGOTA D.C.,"BOGOTA, D.C",ALTO MAGDALENA,4.567,-74.05,Temp Aire 2 m,°C
157,0023065506,0068,2019-08-16T13:40:00.000,10.004,BELLAVISTA  - AUT,CUNDINAMARCA,FACATATIVÁ,ALTO MAGDALENA,4.861,-74.405,Temp Aire 2 m,°C
158,0021206810,0068,2015-05-30T17:25:00.000,17.8,SAN BENITO - FOPAE,BOGOTA D.C.,"BOGOTA, D.C",ALTO MAGDALENA,4.55,-74.233,Temp Aire 2 m,°C
159,0021015070,0068,2013-08-06T00:00:00.000,15,LOS GUACHAROS  - AUT,HUILA,PALESTINA,ALTO MAGDALENA,1.675833,-76.106841,Temp Aire 2 m,°C
160,0021165501,0068,2017-07-14T14:55:00.000,21.8726,DOLORES  - AUT,TOLIMA,DOLORES,ALTO MAGDALENA,3.537155556,-74.82982778,Temp Aire 2 m,°C
161,0052055220,0068,2016-12-11T14:00:00.000,17.8,EL PARAISO - AUT,NARIÑO,TÚQUERRES,PATÍA,1.070611111,-77.63688889,Temp Aire 2 m,°C
162,0035035110,0068,2013-11-09T09:00:00.000,27.5,SALINAS DE UPIN  - AUT,META,RESTREPO,META,4.273861111,-73.58686111,Temp Aire 2 m,°C
163,0026085501,0068,2018-08-19T12:30:00.000,25.71584,LA CELIA  - AUT,RISARALDA,LA CELIA,CAUCA,5.001330556,-75.998,Temp Aire 2 m,°C
164,0026175502,0068,2018-07-30T12:20:00.000,29.77026,LA CRISTALINA  - AUT,ANTIOQUIA,TÁMESIS,CAUCA,5.7,-75.65999722,Temp Aire 2 m,°C
165,0026155505,0068,2019-06-01T02:40:00.000,19.14596,GRANJA LUKER  - AUT,CALDAS,PALESTINA,CAUCA,5.070275,-75.68555278,Temp Aire 2 m,°C
166,0026075120,0068,2014-06-02T08:00:00.000,19.5,LA DIANA - AUT,VALLE DEL CAUCA,FLORIDA,CAUCA,3.314055556,-76.18569444,Temp Aire 2 m,°C
167,0021202180,0068,2011-02-17T03:30:00.000,13.2,QUIBA - FOPAE,BOGOTA D.C.,"BOGOTA, D.C",ALTO MAGDALENA,4.543,-74.156,Temp Aire 2 m,°C
168,0016015502,0068,2019-08-12T14:20:00.000,29.00001,BLONAY  - AUT,NORTE DE SANTANDER,CHINÁCOTA,CATATUMBO,7.564997222,-72.62110833,Temp Aire 2 m,°C
169,0015085050,0068,2012-10-10T16:00:00.000,30.1,TOROMANA - AUT,LA GUAJIRA,URIBIA,CARIBE - GUAJIRA,12.08352778,-71.21094444,Temp Aire 2 m,°C
170,0021115180,0068,2018-11-14T15:00:00.000,34.5,HACIENDA MANILA - AUT,HUILA,BARAYA,ALTO MAGDALENA,3.133055556,-75.08152778,Temp Aire 2 m,°C
171,0026155502,0068,2018-05-31T15:05:00.000,26.12166,CENICAFE  - AUT,CALDAS,MANIZALES,CAUCA,4.991111111,-75.59749722,Temp Aire 2 m,°C
172,0021206940,0068,2011-03-26T06:00:00.000,12.1,CIUDAD BOLIVAR,BOGOTA D.C.,"BOGOTA, D.C",ALTO MAGDALENA,4.577,-74.177,Temp Aire 2 m,°C
173,0021209940,0068,2012-05-16T00:25:00.000,14.8,GRAVILLERAS - FOPAE,BOGOTA D.C.,"BOGOTA, D.C",ALTO MAGDALENA,4.533,-74.117,Temp Aire 2 m,°C
174,0021195501,0068,2018-04-10T21:05:00.000,17.57908,GRANJA TIBACUY  - AUT,CUNDINAMARCA,TIBACUY,ALTO MAGDALENA,4.363052778,-74.43527778,Temp Aire 2 m,°C
175,0021202200,0068,2014-04-11T15:55:00.000,17,VITELMA,BOGOTA D.C.,"BOGOTA, D.C",META,4.575,-74.072,Temp Aire 2 m,°C
176,0024017250,0068,2012-07-28T18:00:00.000,13.9,ESCLUSA EL CUBIO - CAR,CUNDINAMARCA,UBATÉ,SOGAMOSO,5.383,-73.717,Temp Aire 2 m,°C
177,0021206810,0068,2012-12-20T12:10:00.000,18.8,SAN BENITO - FOPAE,BOGOTA D.C.,"BOGOTA, D.C",ALTO MAGDALENA,4.55,-74.233,Temp Aire 2 m,°C
178,0023065501,0068,2017-07-28T12:55:00.000,23.89364,PACHO  - AUT,CUNDINAMARCA,PACHO,MEDIO MAGDALENA,5.129127778,-74.15769722,Temp Aire 2 m,°C
179,0026125506,0068,2016-08-07T20:30:00.000,21.9,EL AGRADO  - AUT,QUINDÍO,MONTENEGRO,CAUCA,4.518333333,-75.7925,Temp Aire 2 m,°C
180,0051025060,0068,2009-03-31T10:00:00.000,23.8,BIOTOPO - AUT,NARIÑO,BARBACOAS,MIRA,1.408638889,-78.28161111,Temp Aire 2 m,°C
181,0026115501,0068,2016-09-29T02:45:00.000,17.9,MANUEL MARIA MALLARINO  - AUT,VALLE DEL CAUCA,TRUJILLO,CAUCA,4.213611111,-76.31497222,Temp Aire 2 m,°C
182,0026195501,0068,2017-09-24T10:50:00.000,26.27116,ANDES  - AUT,ANTIOQUIA,ANDES,CAUCA,5.660108333,-75.91413889,Temp Aire 2 m,°C
183,0023085501,0068,2017-12-18T04:55:00.000,17.82899,COCORNA  - AUT,ANTIOQUIA,COCORNÁ,MEDIO MAGDALENA,6.061941667,-75.18666667,Temp Aire 2 m,°C
184,0026135320,0068,2013-10-15T23:00:00.000,0,NEVADO SANTA ISABEL  - AUT,CALDAS,VILLAMARIA,CAUCA,4.802611111,-75.38047222,Temp Aire 2 m,°C
185,0026195501,0068,2017-12-15T13:55:00.000,26.50164,ANDES  - AUT,ANTIOQUIA,ANDES,CAUCA,5.660108333,-75.91413889,Temp Aire 2 m,°C
186,0021202200,0068,2012-05-21T22:30:00.000,14.4,VITELMA,BOGOTA D.C.,"BOGOTA, D.C",META,4.575,-74.072,Temp Aire 2 m,°C
187,0026065502,0068,2018-10-11T11:10:00.000,22.46604,TRINIDAD LA  - AUT,CAUCA,PIENDAMÓ,CAUCA,2.750555556,-76.57916667,Temp Aire 2 m,°C
188,0026085170,0068,2012-05-03T20:00:00.000,23.5,BASE AEREA MARCO FIDEL SUAREZ  - AUT,VALLE DEL CAUCA,CALI,CAUCA,3.4545,-76.49972222,Temp Aire 2 m,°C
189,0052055502,0068,2018-03-30T21:25:00.000,17.26745,SANDONA  - AUT,NARIÑO,SANDONÁ,PATÍA,1.300888889,-77.46035833,Temp Aire 2 m,°C
190,0026065501,0068,2016-08-20T23:05:00.000,20.2,JAMUNDI  - AUT,VALLE DEL CAUCA,JAMUNDÍ,CAUCA,3.215580556,-76.68021944,Temp Aire 2 m,°C
191,0026125501,0068,2017-08-30T12:10:00.000,27.10236,GENOVA  - AUT,QUINDÍO,GÉNOVA,CAUCA,4.204416667,-75.76866667,Temp Aire 2 m,°C
192,0021208480,0068,2015-07-07T04:15:00.000,13.9,KENNEDY - FOPAE,BOGOTA D.C.,"BOGOTA, D.C",ALTO MAGDALENA,4.633,-74.15,Temp Aire 2 m,°C
193,2120000102,0068,2019-04-27T05:41:00.000,11.56,COLEGIO CARLOS PIZARRO - AUT,BOGOTA D.C.,"BOGOTA, D.C",ALTO MAGDALENA,4.635,-74.205,Temp Aire 2 m,°C
194,0021201980,0068,2012-12-16T19:35:00.000,14.4,CERRO GUADALUPE - FOPAE,BOGOTA D.C.,"BOGOTA, D.C",ALTO MAGDALENA,4.567,-74.05,Temp Aire 2 m,°C
195,0016015110,0068,2015-05-09T16:00:00.000,32.3,UNIVERSIDAD FRANCISO DE PAULA SANTANDER - AUT,NORTE DE SANTANDER,CÚCUTA,CATATUMBO,7.898777778,-72.48716667,Temp Aire 2 m,°C
196,0023055501,0068,2016-07-13T01:15:00.000,19.5,SANTA HELENA  - AUT,CALDAS,MARQUETALIA,MEDIO MAGDALENA,5.317497222,-74.99610833,Temp Aire 2 m,°C
197,2120000102,0068,2019-07-17T20:39:00.000,14.53,COLEGIO CARLOS PIZARRO - AUT,BOGOTA D.C.,"BOGOTA, D.C",ALTO MAGDALENA,4.635,-74.205,Temp Aire 2 m,°C
198,0021205502,0068,2019-06-18T16:40:00.000,23.11457,MISIONES  - AUT,CUNDINAMARCA,EL COLEGIO,ALTO MAGDALENA,4.544997222,-74.44055556,Temp Aire 2 m,°C
199,0015065040,0068,2016-11-16T14:00:00.000,33.9,LA PAULINA - AUT,LA GUAJIRA,FONSECA,CARIBE - GUAJIRA,10.89813889,-72.82847222,Temp Aire 2 m,°C
200,0023015501,0068,2019-05-09T13:35:00.000,23.86908,FRESNO  - AUT,TOLIMA,FRESNO,MEDIO MAGDALENA,5.155638889,-75.00313611,Temp Aire 2 m,°C
201,0021205513,0068,2019-07-11T09:10:00.000,15.348,LA RAMADA  - AUT,CUNDINAMARCA,FUNZA,ALTO MAGDALENA,4.505,-74.184,Temp Aire 2 m,°C
202,0026155505,0068,2017-07-03T07:05:00.000,19.58625,GRANJA LUKER  - AUT,CALDAS,PALESTINA,CAUCA,5.070275,-75.68555278,Temp Aire 2 m,°C
203,0026125501,0068,2018-03-31T02:45:00.000,15.60417,GENOVA  - AUT,QUINDÍO,GÉNOVA,CAUCA,4.204416667,-75.76866667,Temp Aire 2 m,°C
204,0015065180,0068,2015-02-19T10:00:00.000,28.8,APTO ALMIRANTE PADILLA TX GPRS,LA GUAJIRA,RIOHACHA,CARIBE - GUAJIRA,11.53,-72.918,Temp Aire 2 m,°C
205,0021202230,0068,2016-05-08T02:15:00.000,11.9,UAN SEDE USME - FOPAE,BOGOTA D.C.,"BOGOTA, D.C",ALTO MAGDALENA,4.467,-74.117,Temp Aire 2 m,°C
206,0021202240,0068,2011-09-29T05:10:00.000,14.11,UAN SEDE CIRCUNVALAR - FOPAE,BOGOTA D.C.,"BOGOTA, D.C",ALTO MAGDALENA,4.633,-74.05,Temp Aire 2 m,°C
207,0026165501,0068,2016-07-27T16:00:00.000,21.1,EL CIPRES  - AUT,CALDAS,SALAMINA,CAUCA,5.433333333,-75.5,Temp Aire 2 m,°C
208,0026125504,0068,2018-04-28T19:45:00.000,19.10491,PARAGUAICITO  - AUT,QUINDÍO,BUENAVISTA,CAUCA,4.395555556,-75.73416667,Temp Aire 2 m,°C
209,0023065501,0068,2016-07-14T11:05:00.000,22.1,PACHO  - AUT,CUNDINAMARCA,PACHO,MEDIO MAGDALENA,5.129127778,-74.15769722,Temp Aire 2 m,°C
210,0021202240,0068,2016-07-07T03:00:00.000,12.76,UAN SEDE CIRCUNVALAR - FOPAE,BOGOTA D.C.,"BOGOTA, D.C",ALTO MAGDALENA,4.633,-74.05,Temp Aire 2 m,°C
211,0052035501,0068,2018-11-26T08:15:00.000,17.6737,EL SAUCE  - AUT,NARIÑO,LA UNIÓN,PATÍA,1.615555556,-77.10971944,Temp Aire 2 m,°C
212,0021201980,0068,2012-02-02T17:10:00.000,22.2,CERRO GUADALUPE - FOPAE,BOGOTA D.C.,"BOGOTA, D.C",ALTO MAGDALENA,4.567,-74.05,Temp Aire 2 m,°C
213,0029065501,0068,2018-11-08T15:40:00.000,25.90641,"CIENAGA,LA  - AUT",MAGDALENA,CIÉNAGA,BAJO MAGDALENA,10.89785833,-74.08156667,Temp Aire 2 m,°C
214,0026115090,0068,2011-07-12T04:00:00.000,14.5,LAS BRISAS - AUT,VALLE DEL CAUCA,ANSERMANUEVO,SAN JUÁN,4.775583333,-76.14427778,Temp Aire 2 m,°C
215,0026015010,0068,2013-02-01T23:00:00.000,17.4,EL TABLAZO - AUT,CAUCA,POPAYÁN,CAUCA,2.474833056,-76.58129361,Temp Aire 2 m,°C
216,0021015070,0068,2015-11-19T08:00:00.000,18.9,LOS GUACHAROS  - AUT,HUILA,PALESTINA,ALTO MAGDALENA,1.675833,-76.106841,Temp Aire 2 m,°C
217,0026145506,0068,2019-05-25T15:20:00.000,25.7375,FILO BONITO  - AUT,CALDAS,BELALCAZAR,CAUCA,4.986358333,-75.84574722,Temp Aire 2 m,°C
218,0021205506,0068,2019-08-04T07:00:00.000,9.3,GUAMAL - CAR,CUNDINAMARCA,SUBACHOQUE,ALTO MAGDALENA,5.025,-74.153,Temp Aire 2 m,°C
219,0036015501,0068,2017-08-07T01:05:00.000,21.57,TAMARA  - AUT,CASANARE,TÁMARA,CASANARE,5.872219444,-72.11944167,Temp Aire 2 m,°C
220,0021202230,0068,2015-07-30T10:20:00.000,15,UAN SEDE USME - FOPAE,BOGOTA D.C.,"BOGOTA, D.C",ALTO MAGDALENA,4.467,-74.117,Temp Aire 2 m,°C
221,0021197430,0068,2007-02-12T18:00:00.000,27.2,PROVIDENCIA - PROVIDENCIA,CUNDINAMARCA,FUSAGASUGÁ,ALTO MAGDALENA,4.367,-74.3,Temp Aire 2 m,°C
222,0024055070,0068,2019-01-12T08:00:00.000,19,SAN  VICENTE DE CHUCURI  - AUT,SANTANDER,SAN VICENTE DE CHUCURÍ,MEDIO MAGDALENA,6.823388889,-73.47205556,Temp Aire 2 m,°C
223,0026195502,0068,2018-06-11T14:05:00.000,30.1952,CIUDAD BOLIVAR  - AUT,ANTIOQUIA,CIUDAD BOLÍVAR,CAUCA,5.868666667,-75.99044167,Temp Aire 2 m,°C
224,0024015508,0068,2019-03-23T08:20:00.000,13.908,HACIENDA LA MESA  - AUT,CUNDINAMARCA,PASCA,ALTO MAGDALENA,4.308,-74.282,Temp Aire 2 m,°C
225,2120700038,0068,2019-04-29T06:26:00.000,14.06,SAN FRANCISCO - AUT,BOGOTA D.C.,"BOGOTA, D.C",ALTO MAGDALENA,4.562,-74.149,Temp Aire 2 m,°C
226,0021255160,0068,2017-04-04T15:00:00.000,36.3,HACIENDA PAJONALES,TOLIMA,AMBALEMA,ALTO MAGDALENA,4.760722222,-74.83425,Temp Aire 2 m,°C
227,0026145504,0068,2016-08-29T03:30:00.000,16.1,OSPIRMA  - AUT,RISARALDA,GUÁTICA,CAUCA,5.325552778,-75.812775,Temp Aire 2 m,°C
228,0026135320,0068,2015-05-17T22:00:00.000,0.2,NEVADO SANTA ISABEL  - AUT,CALDAS,VILLAMARIA,CAUCA,4.802611111,-75.38047222,Temp Aire 2 m,°C
229,0023055502,0068,2019-04-10T01:15:00.000,17.25946,VILLARAZ  - AUT,CALDAS,PENSILVANIA,MEDIO MAGDALENA,5.383333333,-75.06638889,Temp Aire 2 m,°C
230,0021195501,0068,2017-03-07T03:10:00.000,20.2,GRANJA TIBACUY  - AUT,CUNDINAMARCA,TIBACUY,ALTO MAGDALENA,4.363052778,-74.43527778,Temp Aire 2 m,°C
231,0026075120,0068,2013-07-28T21:00:00.000,21.5,LA DIANA - AUT,VALLE DEL CAUCA,FLORIDA,CAUCA,3.314055556,-76.18569444,Temp Aire 2 m,°C
232,0014015020,0068,2018-09-01T02:00:00.000,27.3,APTO RAFAEL NUÑEZ  TX GPRS,BOLÍVAR,CARTAGENA,CARIBE - LITORAL,10.447,-75.516,Temp Aire 2 m,°C
233,0016015110,0068,2018-11-12T09:00:00.000,29.1,UNIVERSIDAD FRANCISO DE PAULA SANTANDER - AUT,NORTE DE SANTANDER,CÚCUTA,CATATUMBO,7.898777778,-72.48716667,Temp Aire 2 m,°C
234,0025025350,0068,2010-05-16T02:00:00.000,25.9,PUERTA ROJA - AUT,SUCRE,SINCELEJO,BAJO MAGDALENA- CAUCA -SAN JORGE,9.316388889,-75.3875,Temp Aire 2 m,°C
235,0035095120,0068,2005-12-03T11:00:00.000,16,AQUITANIA - AUT,BOYACÁ,AQUITANIA,META,5.556638889,-72.88175,Temp Aire 2 m,°C
236,0028015110,0068,2018-10-03T18:00:00.000,28.3,MANAURE - AUT,CESAR,MANAURE BALCÓN DEL CESAR,CESAR,10.36533333,-72.99763889,Temp Aire 2 m,°C
237,2120000106,0068,2019-08-14T22:58:00.000,5.31,GRAN BRETAÑA - AUT,BOGOTA D.C.,"BOGOTA, D.C",ALTO MAGDALENA,4.512,-74.164,Temp Aire 2 m,°C
238,0035215020,0068,2014-09-30T21:00:00.000,25.4,APTO YOPAL,CASANARE,YOPAL,META,5.32,-72.388,Temp Aire 2 m,°C
239,0026135290,0068,2017-11-22T20:00:00.000,21.4,MARSELLA - AUT,RISARALDA,MARSELLA,CAUCA,4.929583333,-75.73838889,Temp Aire 2 m,°C
240,0026205501,0068,2017-11-18T17:15:00.000,22.60844,EL ROSARIO  - AUT,ANTIOQUIA,VENECIA,CAUCA,5.625830556,-75.70527778,Temp Aire 2 m,°C
241,0021115501,0068,2017-09-16T20:35:00.000,19.02401,TELLO  - AUT,HUILA,TELLO,ALTO MAGDALENA,2.960666667,-75.02849722,Temp Aire 2 m,°C
242,0024035410,0068,2010-11-09T06:00:00.000,12.2,SOGAMOSO - AUT,BOYACÁ,SOGAMOSO,SOGAMOSO,5.753333333,-72.91115278,Temp Aire 2 m,°C
243,0052055210,0068,2013-03-21T20:00:00.000,10.1,BOTANA - AUT,NARIÑO,PASTO,PATÍA,1.16,-77.27880556,Temp Aire 2 m,°C
244,0024015110,0068,2009-01-10T14:00:00.000,19,LA BOYERA - AUT,CUNDINAMARCA,UBATÉ,SOGAMOSO,5.303805556,-73.85175,Temp Aire 2 m,°C
245,0021206790,0068,2007-05-24T09:00:00.000,14.8,HACIENDA SANTA ANA - AUT,CUNDINAMARCA,NEMOCÓN,ALTO MAGDALENA,5.0905,-73.88125,Temp Aire 2 m,°C
246,0029065120,0068,2017-10-01T23:00:00.000,19.6,BATALLON NO. 6 - AUT,MAGDALENA,FUNDACIÓN,BAJO MAGDALENA,10.46536111,-73.92777778,Temp Aire 2 m,°C
247,0024035410,0068,2009-11-04T19:00:00.000,15.4,SOGAMOSO - AUT,BOYACÁ,SOGAMOSO,SOGAMOSO,5.753333333,-72.91115278,Temp Aire 2 m,°C
248,0021201980,0068,2014-10-17T07:25:00.000,11.5,CERRO GUADALUPE - FOPAE,BOGOTA D.C.,"BOGOTA, D.C",ALTO MAGDALENA,4.567,-74.05,Temp Aire 2 m,°C
249,0044035501,0068,2018-06-30T17:25:00.000,18.81226,PAUJIL  - AUT,CAQUETA,EL PAUJIL,CAQUETÁ,1.573819444,-75.3402,Temp Aire 2 m,°C
250,0016015502,0068,2019-05-04T03:15:00.000,18.92875,BLONAY  - AUT,NORTE DE SANTANDER,CHINÁCOTA,CATATUMBO,7.564997222,-72.62110833,Temp Aire 2 m,°C
251,0021202250,0068,2012-08-02T18:20:00.000,14.6,DOÑA JUANA - FOPAE,BOGOTA D.C.,"BOGOTA, D.C",ALTO MAGDALENA,4.5,-74.133,Temp Aire 2 m,°C
252,0026135503,0068,2016-08-11T18:55:00.000,21.5,NARANJAL  - AUT,CALDAS,CHINCHINA,CAUCA,4.971944444,-75.65221944,Temp Aire 2 m,°C
253,0024030950,0068,2019-05-16T09:00:00.000,21.9,MALAGA 2,SANTANDER,MÁLAGA,SOGAMOSO,6.706388889,-72.72972222,Temp Aire 2 m,°C
254,0026125503,0068,2017-02-21T08:45:00.000,20.7,LA SIRENA  - AUT,VALLE DEL CAUCA,SEVILLA,CAUCA,4.285,-75.9025,Temp Aire 2 m,°C
255,0026055110,0068,2014-01-15T08:00:00.000,24.5,LA INDEPENDENCIA - AUT,VALLE DEL CAUCA,JAMUNDÍ,CAUCA,3.185361111,-76.56930556,Temp Aire 2 m,°C
256,0021055501,0068,2018-10-03T19:05:00.000,19.42995,SIMON CAMPOS  - AUT,HUILA,LA PLATA,ALTO MAGDALENA,2.345830556,-75.87805556,Temp Aire 2 m,°C
257,0026145503,0068,2019-01-25T17:30:00.000,24.15544,ANSERMA  - AUT,CALDAS,ANSERMA,CAUCA,5.231330556,-75.77961667,Temp Aire 2 m,°C
258,0016035501,0068,2017-03-01T00:00:00.000,16.4,SARDINATA  - AUT,NORTE DE SANTANDER,SARDINATA,CATATUMBO,8.151169444,-72.86776667,Temp Aire 2 m,°C
259,0026085501,0068,2016-09-04T22:30:00.000,17.3,LA CELIA  - AUT,RISARALDA,LA CELIA,CAUCA,5.001330556,-75.998,Temp Aire 2 m,°C
260,0021055070,0068,2016-04-03T11:00:00.000,22.2,INZA - AUT,CAUCA,INZÁ,ALTO MAGDALENA,2.548194444,-76.06394444,Temp Aire 2 m,°C
261,0026125505,0068,2019-02-07T19:05:00.000,18.10679,LA BELLA  - AUT,QUINDÍO,CALARCÁ,CAUCA,4.501111111,-75.67138889,Temp Aire 2 m,°C
262,0026125506,0068,2017-10-12T08:45:00.000,23.69531,EL AGRADO  - AUT,QUINDÍO,MONTENEGRO,CAUCA,4.518333333,-75.7925,Temp Aire 2 m,°C
263,0052055502,0068,2019-03-09T11:40:00.000,25.41271,SANDONA  - AUT,NARIÑO,SANDONÁ,PATÍA,1.300888889,-77.46035833,Temp Aire 2 m,°C
264,0029045150,0068,2007-10-18T19:00:00.000,22.8,SAIZA - En Siniestro,CÓRDOBA,TIERRALTA,SINÚ,7.746,-76.433,Temp Aire 2 m,°C
265,0035075090,0068,2019-08-08T10:00:00.000,10.685,MACHETA - CHIVOR,CUNDINAMARCA,MACHETÁ,META,5.083,-73.65,Temp Aire 2 m,°C
266,0026185501,0068,2019-06-14T23:00:00.000,16.9457,SONSON  - AUT,ANTIOQUIA,SONSÓN,CAUCA,5.677719444,-75.34780556,Temp Aire 2 m,°C
267,0021215501,0068,2018-11-18T10:10:00.000,25.41603,ESPERANZA LA  - AUT,TOLIMA,IBAGUÉ,ALTO MAGDALENA,4.45,-75.25,Temp Aire 2 m,°C
268,0016025502,0068,2017-07-27T05:20:00.000,18.94271,FRANCISCO ROMERO  - AUT,NORTE DE SANTANDER,SALAZAR,CATATUMBO,7.739166667,-72.78055278,Temp Aire 2 m,°C
269,0021209940,0068,2012-02-24T18:15:00.000,16.8,GRAVILLERAS - FOPAE,BOGOTA D.C.,"BOGOTA, D.C",ALTO MAGDALENA,4.533,-74.117,Temp Aire 2 m,°C
270,0023055502,0068,2017-12-14T00:30:00.000,16.4511,VILLARAZ  - AUT,CALDAS,PENSILVANIA,MEDIO MAGDALENA,5.383333333,-75.06638889,Temp Aire 2 m,°C
271,0026125502,0068,2019-08-20T06:15:00.000,16.80451,CAICEDONIA  - AUT,VALLE DEL CAUCA,CAICEDONIA,CAUCA,4.297558333,-75.86396111,Temp Aire 2 m,°C
272,0026115501,0068,2019-06-24T21:40:00.000,19.0281,MANUEL MARIA MALLARINO  - AUT,VALLE DEL CAUCA,TRUJILLO,CAUCA,4.213611111,-76.31497222,Temp Aire 2 m,°C
273,0024015501,0068,2018-03-15T08:55:00.000,20.98021,BERTHA  - AUT,BOYACÁ,MONIQUIRÁ,SOGAMOSO,5.882777778,-73.57333056,Temp Aire 2 m,°C
274,0023105060,0068,2010-06-17T19:00:00.000,23.5,VEGACHA,ANTIOQUIA,VEGACHÍ,MEDIO MAGDALENA,6.774,-74.797,Temp Aire 2 m,°C
275,0021206600,0068,2016-09-14T01:00:00.000,12,NUEVA GENERACION  - AUT,BOGOTA,"BOGOTA, D.C",ALTO MAGDALENA,4.782222222,-74.09433333,Temp Aire 2 m,°C
276,0052045080,0068,2012-02-10T01:00:00.000,9.9,UNIVERSIDAD DE NARINO  - AUT,NARIÑO,PASTO,PATÍA,1.225111111,-77.28338889,Temp Aire 2 m,°C
277,0026195501,0068,2019-03-26T19:50:00.000,20.24809,ANDES  - AUT,ANTIOQUIA,ANDES,CAUCA,5.660108333,-75.91413889,Temp Aire 2 m,°C
278,0023025501,0068,2016-09-17T11:20:00.000,29.2,MANZANARES  - AUT,CALDAS,MANZANARES,MEDIO MAGDALENA,5.163913889,-75.11740833,Temp Aire 2 m,°C
279,0024035410,0068,2016-04-23T17:00:00.000,21,SOGAMOSO - AUT,BOYACÁ,SOGAMOSO,SOGAMOSO,5.753333333,-72.91115278,Temp Aire 2 m,°C
280,0026205501,0068,2018-06-07T19:30:00.000,22.36197,EL ROSARIO  - AUT,ANTIOQUIA,VENECIA,CAUCA,5.625830556,-75.70527778,Temp Aire 2 m,°C
281,0011025501,0068,2017-11-26T09:30:00.000,21.78573,CARMEN DE ATRATO  - AUT,CHOCO,EL CARMEN,ATRATO - DARIÉN,5.888719444,-76.14516667,Temp Aire 2 m,°C
282,0021206810,0068,2010-12-07T17:30:00.000,17.8,SAN BENITO - FOPAE,BOGOTA D.C.,"BOGOTA, D.C",ALTO MAGDALENA,4.55,-74.233,Temp Aire 2 m,°C
283,0021205502,0068,2019-05-15T23:00:00.000,19.6325,MISIONES  - AUT,CUNDINAMARCA,EL COLEGIO,ALTO MAGDALENA,4.544997222,-74.44055556,Temp Aire 2 m,°C
284,0021165502,0068,2019-05-18T10:05:00.000,25.10772,VILLARICA  - AUT,TOLIMA,VILLARRICA,ALTO MAGDALENA,3.955641667,-74.59178611,Temp Aire 2 m,°C
285,0052025090,0068,2007-02-11T02:00:00.000,16.6,LA SIERRA - AUT,CAUCA,LA SIERRA,PATÍA,2.193833333,-76.75033333,Temp Aire 2 m,°C
286,0021085501,0068,2016-08-03T00:00:00.000,16.6,TERUEL  - AUT,HUILA,TERUEL,ALTO MAGDALENA,2.762997222,-75.61144167,Temp Aire 2 m,°C
287,0026155240,0068,2019-06-06T14:00:00.000,8.9,PNN NEVADOS - AUT,CALDAS,VILLAMARIA,CAUCA,4.859444444,-75.38241667,Temp Aire 2 m,°C
288,0021202180,0068,2012-02-11T20:20:00.000,14.6,QUIBA - FOPAE,BOGOTA D.C.,"BOGOTA, D.C",ALTO MAGDALENA,4.543,-74.156,Temp Aire 2 m,°C
289,0026125504,0068,2018-12-03T22:20:00.000,20.10815,PARAGUAICITO  - AUT,QUINDÍO,BUENAVISTA,CAUCA,4.395555556,-75.73416667,Temp Aire 2 m,°C
290,0052055502,0068,2018-08-08T11:20:00.000,28.63828,SANDONA  - AUT,NARIÑO,SANDONÁ,PATÍA,1.300888889,-77.46035833,Temp Aire 2 m,°C
291,0052055150,0068,2008-04-15T17:00:00.000,6.9,CERRO PARAMO  - AUT,NARIÑO,PUERRES,PATÍA,0.843111111,-77.38880556,Temp Aire 2 m,°C
292,0023125501,0068,2019-02-15T15:10:00.000,27.82611,PAUNA  - AUT,BOYACÁ,PAUNA,MEDIO MAGDALENA,5.657130556,-73.96032778,Temp Aire 2 m,°C
293,0035075080,0068,2015-07-14T05:59:05.000,0,PARAMO RABANAL - AUT,BOYACÁ,VENTAQUEMADA,META,5.392388889,-73.56277778,Temp Aire 2 m,°C
294,0046015030,0068,2016-11-15T21:00:00.000,24.7,SAN VICENTE DEL CAGUAN  - AUT,CAQUETA,SAN VICENTE DEL CAGUÁN,CAGUÁN,2.063,-74.76269444,Temp Aire 2 m,°C
295,0021206930,0068,2007-04-17T00:00:00.000,7.5,PARAMO GUERRERO  - AUT,CUNDINAMARCA,ZIPAQUIRÁ,ALTO MAGDALENA,5.086444444,-74.02216667,Temp Aire 2 m,°C
296,0024035410,0068,2016-10-17T07:00:00.000,10.3,SOGAMOSO - AUT,BOYACÁ,SOGAMOSO,SOGAMOSO,5.753333333,-72.91115278,Temp Aire 2 m,°C
297,0021202230,0068,2013-06-06T04:45:00.000,11.4,UAN SEDE USME - FOPAE,BOGOTA D.C.,"BOGOTA, D.C",ALTO MAGDALENA,4.467,-74.117,Temp Aire 2 m,°C
298,0026195502,0068,2018-04-14T08:10:00.000,20.08756,CIUDAD BOLIVAR  - AUT,ANTIOQUIA,CIUDAD BOLÍVAR,CAUCA,5.868666667,-75.99044167,Temp Aire 2 m,°C
299,0021255160,0068,2016-06-20T21:00:00.000,27.1,HACIENDA PAJONALES,TOLIMA,AMBALEMA,ALTO MAGDALENA,4.760722222,-74.83425,Temp Aire 2 m,°C
300,0012015100,0068,2014-05-23T05:00:00.000,24,PISTA INDIRA - AUT,ANTIOQUIA,TURBO,CARIBE - LITORAL,7.94075,-76.69616667,Temp Aire 2 m,°C
301,0031095030,0068,2006-08-25T23:00:00.000,24.1,PTO INIRIDA,GUAINÍA,INÍRIDA,INÍRIDA,3.868,-67.932,Temp Aire 2 m,°C
302,0024055501,0068,2019-07-26T05:20:00.000,17.5831,CHUCURI  - AUT,SANTANDER,SAN VICENTE DE CHUCURÍ,SOGAMOSO,6.863566667,-73.38411667,Temp Aire 2 m,°C
303,0052035040,0068,2009-10-17T16:00:00.000,28.1,VIENTO LIBRE - AUT,NARIÑO,TAMINANGO,PATÍA,1.6185,-77.34361111,Temp Aire 2 m,°C
304,0026157170,0068,2009-11-20T01:00:00.000,0.3,CONEJERAS2 - AUT,CALDAS,VILLAMARIA,CAUCA,4.820388889,-75.37713889,Temp Aire 2 m,°C
305,0026125509,0068,2018-09-03T04:50:00.000,15.91089,ESPERANZA LA  - AUT,QUINDÍO,PIJAO,CAUCA,4.299444444,-75.72508056,Temp Aire 2 m,°C
306,0021202220,0068,2014-01-01T07:35:00.000,13,PARAISO - FOPAE,BOGOTA D.C.,"BOGOTA, D.C",ALTO MAGDALENA,4.617,-74.05,Temp Aire 2 m,°C
307,0021202200,0068,2013-06-26T18:10:00.000,16.2,VITELMA,BOGOTA D.C.,"BOGOTA, D.C",META,4.575,-74.072,Temp Aire 2 m,°C
308,0035075080,0068,2011-10-18T00:00:00.000,7.2,PARAMO RABANAL - AUT,BOYACÁ,VENTAQUEMADA,META,5.392388889,-73.56277778,Temp Aire 2 m,°C
309,0026185050,0068,2010-07-23T13:00:00.000,21.9,SANTA BARBARA - AUT,ANTIOQUIA,SANTA BÁRBARA,CAUCA,5.859583333,-75.55627778,Temp Aire 2 m,°C
310,0026185501,0068,2018-03-23T17:00:00.000,24.81791,SONSON  - AUT,ANTIOQUIA,SONSÓN,CAUCA,5.677719444,-75.34780556,Temp Aire 2 m,°C
311,2604500039,0068,2019-04-24T16:00:00.000,26.8,CORINTO - AUT,CAUCA,CORINTO,CAUCA,3.178611111,-76.252777778,Temp Aire 2 m,°C
312,0024035410,0068,2012-05-13T17:00:00.000,20.4,SOGAMOSO - AUT,BOYACÁ,SOGAMOSO,SOGAMOSO,5.753333333,-72.91115278,Temp Aire 2 m,°C
313,0026185501,0068,2018-02-12T04:25:00.000,15.82136,SONSON  - AUT,ANTIOQUIA,SONSÓN,CAUCA,5.677719444,-75.34780556,Temp Aire 2 m,°C
314,0021205505,0068,2016-07-29T06:00:00.000,0,PTAR TOCANCIPA - CAR,CUNDINAMARCA,TOCANCIPÁ,ALTO MAGDALENA,4.97,-73.918,Temp Aire 2 m,°C
315,0052055210,0068,2016-02-14T18:00:00.000,14.6,BOTANA - AUT,NARIÑO,PASTO,PATÍA,1.16,-77.27880556,Temp Aire 2 m,°C
316,0026165501,0068,2018-03-21T17:30:00.000,22.03124,EL CIPRES  - AUT,CALDAS,SALAMINA,CAUCA,5.433333333,-75.5,Temp Aire 2 m,°C
317,0026165502,0068,2017-08-05T01:20:00.000,14.9424,JARDIN  - AUT,ANTIOQUIA,JARDÍN,CAUCA,5.6,-75.84972222,Temp Aire 2 m,°C
318,0021201200,0068,2012-08-11T04:20:00.000,7.34,ESC LA UNION - FOPAE,BOGOTA D.C.,"BOGOTA, D.C",ALTO MAGDALENA,4.343,-74.184,Temp Aire 2 m,°C
319,0026155230,0068,2014-05-22T05:00:00.000,15.4,EMAS - AUT,CALDAS,MANIZALES,CAUCA,5.08525,-75.50713889,Temp Aire 2 m,°C
320,0026135502,0068,2019-04-06T18:55:00.000,18.97136,EL JAZMIN  - AUT,RISARALDA,SANTA ROSA DE CABAL,CAUCA,4.911944444,-75.62416389,Temp Aire 2 m,°C
321,0027015501,0068,2017-12-11T14:30:00.000,23.18657,YOLOMBO  - AUT,ANTIOQUIA,YOLOMBÓ,NECHÍ,6.580958333,-75.11487778,Temp Aire 2 m,°C
322,0026155502,0068,2018-07-18T01:10:00.000,19.00125,CENICAFE  - AUT,CALDAS,MANIZALES,CAUCA,4.991111111,-75.59749722,Temp Aire 2 m,°C
323,0021201980,0068,2013-06-17T03:15:00.000,11.6,CERRO GUADALUPE - FOPAE,BOGOTA D.C.,"BOGOTA, D.C",ALTO MAGDALENA,4.567,-74.05,Temp Aire 2 m,°C
324,0035085070,0068,2012-11-11T01:00:00.000,20,SANTA MARIA - AUT,BOYACÁ,SANTA MARÍA,META,4.84125,-73.25669444,Temp Aire 2 m,°C
325,0026145508,0068,2016-09-05T23:20:00.000,18.2,SAN JOSE  - AUT,CALDAS,SAN JOSE,CAUCA,5.094972222,-75.79174722,Temp Aire 2 m,°C
326,0026125710,0068,2018-01-15T06:00:00.000,17.7,APTO MATECAÑA TX GPS/GOES,RISARALDA,PEREIRA,CAUCA,4.813,-75.74,Temp Aire 2 m,°C
327,0021085501,0068,2017-11-10T14:20:00.000,20.30109,TERUEL  - AUT,HUILA,TERUEL,ALTO MAGDALENA,2.762997222,-75.61144167,Temp Aire 2 m,°C
328,0021201200,0068,2016-01-27T01:30:00.000,2.73,ESC LA UNION - FOPAE,BOGOTA D.C.,"BOGOTA, D.C",ALTO MAGDALENA,4.343,-74.184,Temp Aire 2 m,°C
329,0026155505,0068,2019-08-17T08:35:00.000,22.21346,GRANJA LUKER  - AUT,CALDAS,PALESTINA,CAUCA,5.070275,-75.68555278,Temp Aire 2 m,°C
330,0021206980,0068,2009-05-22T15:00:00.000,13.3,SANTA CRUZ DE SIECHA  - AUT,CUNDINAMARCA,GUASCA,ALTO MAGDALENA,4.784277778,-73.87080556,Temp Aire 2 m,°C
331,0026015010,0068,2009-02-17T08:00:00.000,19.4,EL TABLAZO - AUT,CAUCA,POPAYÁN,CAUCA,2.474833056,-76.58129361,Temp Aire 2 m,°C
332,0021202220,0068,2013-07-18T14:10:00.000,20.4,PARAISO - FOPAE,BOGOTA D.C.,"BOGOTA, D.C",ALTO MAGDALENA,4.617,-74.05,Temp Aire 2 m,°C
333,0021015050,0068,2008-12-14T08:00:00.000,16.5,PURACE  - AUT,HUILA,SAN AGUSTÍN,ALTO MAGDALENA,1.925916667,-76.42755556,Temp Aire 2 m,°C
334,0052055150,0068,2010-03-11T07:00:00.000,6,CERRO PARAMO  - AUT,NARIÑO,PUERRES,PATÍA,0.843111111,-77.38880556,Temp Aire 2 m,°C
335,0016025503,0068,2016-07-16T23:15:00.000,15.2,GRAMALOTE  - AUT,NORTE DE SANTANDER,GRAMALOTE,CATATUMBO,7.923163889,-72.83375556,Temp Aire 2 m,°C
336,0021202250,0068,2012-08-23T08:00:00.000,15.7,DOÑA JUANA - FOPAE,BOGOTA D.C.,"BOGOTA, D.C",ALTO MAGDALENA,4.5,-74.133,Temp Aire 2 m,°C
337,0027015290,0068,2019-06-17T13:00:00.000,24.7,PAJARITO - AUT,ANTIOQUIA,MEDELLÍN,NECHÍ,6.286333333,-75.61279167,Temp Aire 2 m,°C
338,0021065501,0068,2019-03-02T00:55:00.000,19.27541,JORGE VILLAMIL  - AUT,HUILA,GIGANTE,ALTO MAGDALENA,2.325552778,-75.50972222,Temp Aire 2 m,°C
339,0026185501,0068,2017-09-20T06:55:00.000,16.07495,SONSON  - AUT,ANTIOQUIA,SONSÓN,CAUCA,5.677719444,-75.34780556,Temp Aire 2 m,°C
340,0029065501,0068,2016-07-30T14:30:00.000,25.2,"CIENAGA,LA  - AUT",MAGDALENA,CIÉNAGA,BAJO MAGDALENA,10.89785833,-74.08156667,Temp Aire 2 m,°C
341,0021202240,0068,2015-06-14T04:35:00.000,12.76,UAN SEDE CIRCUNVALAR - FOPAE,BOGOTA D.C.,"BOGOTA, D.C",ALTO MAGDALENA,4.633,-74.05,Temp Aire 2 m,°C
342,0021165501,0068,2017-10-23T00:10:00.000,17.75131,DOLORES  - AUT,TOLIMA,DOLORES,ALTO MAGDALENA,3.537155556,-74.82982778,Temp Aire 2 m,°C
343,0026055100,0068,2007-06-09T19:00:00.000,15.2,FARALLONES - AUT,VALLE DEL CAUCA,CALI,CAUCA,3.416055556,-76.6515,Temp Aire 2 m,°C
344,0023085270,0068,2018-04-09T11:00:00.000,20,APTO J.M CORDOVA TX GPRS,ANTIOQUIA,RIONEGRO,MEDIO MAGDALENA,6.169,-75.426,Temp Aire 2 m,°C
345,0052055502,0068,2018-11-02T00:05:00.000,15.35387,SANDONA  - AUT,NARIÑO,SANDONÁ,PATÍA,1.300888889,-77.46035833,Temp Aire 2 m,°C
346,0021202200,0068,2011-12-09T12:10:00.000,20.9,VITELMA,BOGOTA D.C.,"BOGOTA, D.C",META,4.575,-74.072,Temp Aire 2 m,°C
347,0021202170,0068,2012-03-01T00:05:00.000,14.2,SIERRA MORENA - FOPAE,BOGOTA D.C.,"BOGOTA, D.C",ALTO MAGDALENA,4.567,-74.167,Temp Aire 2 m,°C
348,0021015040,0068,2019-06-30T05:00:00.000,14.6,LA PRIMAVERA - AUT,HUILA,SALADOBLANCO,ALTO MAGDALENA,2.021583333,-76.11433333,Temp Aire 2 m,°C
349,0021208480,0068,2012-01-25T14:45:00.000,17.5,KENNEDY - FOPAE,BOGOTA D.C.,"BOGOTA, D.C",ALTO MAGDALENA,4.633,-74.15,Temp Aire 2 m,°C
350,0021206980,0068,2012-09-26T11:00:00.000,12.7,SANTA CRUZ DE SIECHA  - AUT,CUNDINAMARCA,GUASCA,ALTO MAGDALENA,4.784277778,-73.87080556,Temp Aire 2 m,°C
351,0021015502,0068,2018-12-28T14:55:00.000,27.8648,SAN AGUSTIN  - AUT,HUILA,SAN AGUSTÍN,ALTO MAGDALENA,1.851416667,-76.30433056,Temp Aire 2 m,°C
352,0026125508,0068,2018-11-07T00:10:00.000,18.73594,LACATALINA  - AUT,RISARALDA,PEREIRA,CAUCA,4.7475,-75.73805556,Temp Aire 2 m,°C
353,0021055070,0068,2013-06-28T15:59:05.000,0,INZA - AUT,CAUCA,INZÁ,ALTO MAGDALENA,2.548194444,-76.06394444,Temp Aire 2 m,°C
354,0024015502,0068,2016-08-08T03:15:00.000,0.3,SUAITA  - AUT,SANTANDER,SUAITA,SOGAMOSO,6.088602778,-73.44859722,Temp Aire 2 m,°C
355,0016015502,0068,2017-12-07T01:40:00.000,17.49392,BLONAY  - AUT,NORTE DE SANTANDER,CHINÁCOTA,CATATUMBO,7.564997222,-72.62110833,Temp Aire 2 m,°C
356,0035095120,0068,2008-06-01T14:00:00.000,15.5,AQUITANIA - AUT,BOYACÁ,AQUITANIA,META,5.556638889,-72.88175,Temp Aire 2 m,°C
357,0026055110,0068,2010-09-14T21:00:00.000,23.6,LA INDEPENDENCIA - AUT,VALLE DEL CAUCA,JAMUNDÍ,CAUCA,3.185361111,-76.56930556,Temp Aire 2 m,°C
358,0028025502,0068,2017-09-07T20:00:00.000,27.8,APTO ALFONSO LOPEZ,CESAR,VALLEDUPAR,CESAR,10.436,-73.248,Temp Aire 2 m,°C
359,0054035501,0068,2016-06-24T09:40:00.000,25.2,SANTIAGO GUTIERREZ  - AUT,VALLE DEL CAUCA,ARGELIA,SAN JUÁN,4.726388889,-76.11446944,Temp Aire 2 m,°C
360,0021015502,0068,2018-01-21T07:40:00.000,15.44618,SAN AGUSTIN  - AUT,HUILA,SAN AGUSTÍN,ALTO MAGDALENA,1.851416667,-76.30433056,Temp Aire 2 m,°C
361,0023065506,0068,2018-11-11T11:30:00.000,13.195,BELLAVISTA  - AUT,CUNDINAMARCA,FACATATIVÁ,ALTO MAGDALENA,4.861,-74.405,Temp Aire 2 m,°C
362,0021185501,0068,2016-07-14T17:20:00.000,24.6,ROVIRA  - AUT,TOLIMA,ROVIRA,ALTO MAGDALENA,4.266666667,-75.28305556,Temp Aire 2 m,°C
363,0024055070,0068,2006-06-15T03:00:00.000,20,SAN  VICENTE DE CHUCURI  - AUT,SANTANDER,SAN VICENTE DE CHUCURÍ,MEDIO MAGDALENA,6.823388889,-73.47205556,Temp Aire 2 m,°C
364,0026145503,0068,2019-07-06T10:45:00.000,27.02944,ANSERMA  - AUT,CALDAS,ANSERMA,CAUCA,5.231330556,-75.77961667,Temp Aire 2 m,°C
365,0021202220,0068,2010-12-28T09:10:00.000,16.3,PARAISO - FOPAE,BOGOTA D.C.,"BOGOTA, D.C",ALTO MAGDALENA,4.617,-74.05,Temp Aire 2 m,°C
366,0021115501,0068,2019-06-16T13:55:00.000,25.59551,TELLO  - AUT,HUILA,TELLO,ALTO MAGDALENA,2.960666667,-75.02849722,Temp Aire 2 m,°C
367,0026155220,0068,2018-09-21T03:00:00.000,15.4,VILLAMARIA - AUT,CALDAS,VILLAMARIA,CAUCA,5.048666667,-75.51388889,Temp Aire 2 m,°C
368,0024015503,0068,2018-06-19T01:50:00.000,14.88988,CONFINES  - AUT,SANTANDER,CONFINES,SOGAMOSO,6.373027778,-73.20760833,Temp Aire 2 m,°C
369,2120000104,0068,2018-12-16T01:10:00.000,7.818,COLEGIO MIGUEL ANTONIO CARO - AUT,BOGOTA D.C.,"BOGOTA, D.C",ALTO MAGDALENA,4.813,-74.031,Temp Aire 2 m,°C
370,0021205521,0068,2019-07-08T07:30:00.000,8.776,SANTA HELENA  - AUT,CUNDINAMARCA,LA CALERA,ALTO MAGDALENA,4.738,-73.936,Temp Aire 2 m,°C
371,0023055501,0068,2017-07-21T11:10:00.000,23.94307,SANTA HELENA  - AUT,CALDAS,MARQUETALIA,MEDIO MAGDALENA,5.317497222,-74.99610833,Temp Aire 2 m,°C
372,0021205525,0068,2019-05-19T07:40:00.000,11.655,VILLA PINZON  - AUT,CUNDINAMARCA,VILLAPINZÓN,ALTO MAGDALENA,5.229,-73.585,Temp Aire 2 m,°C
373,0052025090,0068,2016-05-08T12:00:00.000,23,LA SIERRA - AUT,CAUCA,LA SIERRA,PATÍA,2.193833333,-76.75033333,Temp Aire 2 m,°C
374,0028045501,0068,2018-06-18T04:45:00.000,17.95902,PUEBLO BELLO  - AUT,CESAR,PUEBLO BELLO,CESAR,10.42166667,-73.57471944,Temp Aire 2 m,°C
375,0053115502,0068,2017-05-19T06:50:00.000,17.4,JULIO FERNANDEZ  - AUT,VALLE DEL CAUCA,RESTREPO,TAPAJE - DAGUA - DIRECTOS,3.809163889,-76.53305556,Temp Aire 2 m,°C
376,0024015501,0068,2018-05-08T23:25:00.000,16.22035,BERTHA  - AUT,BOYACÁ,MONIQUIRÁ,SOGAMOSO,5.882777778,-73.57333056,Temp Aire 2 m,°C
377,0021208480,0068,2016-04-15T05:15:00.000,16.3,KENNEDY - FOPAE,BOGOTA D.C.,"BOGOTA, D.C",ALTO MAGDALENA,4.633,-74.15,Temp Aire 2 m,°C
378,0022075050,0068,2009-09-19T19:00:00.000,8.5,PARAMO DE YERBABUENA  - AUT,TOLIMA,RONCESVALLES,SALDAÑA,4.075805556,-75.70083333,Temp Aire 2 m,°C
379,0026085501,0068,2019-03-13T17:45:00.000,22.57068,LA CELIA  - AUT,RISARALDA,LA CELIA,CAUCA,5.001330556,-75.998,Temp Aire 2 m,°C
380,0044035050,0068,2012-08-20T01:00:00.000,20.7,MACAGUAL - AUT,CAQUETA,FLORENCIA,CAQUETÁ,1.499722222,-75.661,Temp Aire 2 m,°C
381,0023015501,0068,2019-01-21T16:50:00.000,23.05324,FRESNO  - AUT,TOLIMA,FRESNO,MEDIO MAGDALENA,5.155638889,-75.00313611,Temp Aire 2 m,°C
382,2120000102,0068,2019-07-22T15:07:00.000,20.07,COLEGIO CARLOS PIZARRO - AUT,BOGOTA D.C.,"BOGOTA, D.C",ALTO MAGDALENA,4.635,-74.205,Temp Aire 2 m,°C
383,0044035040,0068,2015-07-14T00:00:00.000,21.1,FLORENCIA - AUT,CAQUETA,FLORENCIA,CAQUETÁ,1.733,-75.64502778,Temp Aire 2 m,°C
384,0036015501,0068,2016-07-30T08:15:00.000,21.1,TAMARA  - AUT,CASANARE,TÁMARA,CASANARE,5.872219444,-72.11944167,Temp Aire 2 m,°C
385,0026015010,0068,2011-04-05T17:00:00.000,19,EL TABLAZO - AUT,CAUCA,POPAYÁN,CAUCA,2.474833056,-76.58129361,Temp Aire 2 m,°C
386,0053075020,0068,2016-12-10T16:00:00.000,21.2,EL DIVISO - AUT,CAUCA,ARGELIA,TAPAJE - DAGUA - DIRECTOS,2.311416667,-77.25877778,Temp Aire 2 m,°C
387,0023105060,0068,2007-09-13T21:00:00.000,20.8,VEGACHA,ANTIOQUIA,VEGACHÍ,MEDIO MAGDALENA,6.774,-74.797,Temp Aire 2 m,°C
388,0021202170,0068,2013-10-07T22:30:00.000,14.3,SIERRA MORENA - FOPAE,BOGOTA D.C.,"BOGOTA, D.C",ALTO MAGDALENA,4.567,-74.167,Temp Aire 2 m,°C
389,0016025503,0068,2019-07-07T09:30:00.000,20.81673,GRAMALOTE  - AUT,NORTE DE SANTANDER,GRAMALOTE,CATATUMBO,7.923163889,-72.83375556,Temp Aire 2 m,°C
390,0026135502,0068,2018-07-19T18:00:00.000,22.96471,EL JAZMIN  - AUT,RISARALDA,SANTA ROSA DE CABAL,CAUCA,4.911944444,-75.62416389,Temp Aire 2 m,°C
391,0026155505,0068,2019-08-17T17:25:00.000,28.40082,GRANJA LUKER  - AUT,CALDAS,PALESTINA,CAUCA,5.070275,-75.68555278,Temp Aire 2 m,°C
392,0025025002,0068,2014-09-25T10:00:00.000,31.9,LOS ALAMOS,MAGDALENA,SAN SEBASTIÁN DE BUENAVISTA,BAJO MAGDALENA,9.304,-74.274,Temp Aire 2 m,°C
393,0026175502,0068,2018-06-15T21:35:00.000,21.84341,LA CRISTALINA  - AUT,ANTIOQUIA,TÁMESIS,CAUCA,5.7,-75.65999722,Temp Aire 2 m,°C
394,2120000104,0068,2019-01-17T16:18:00.000,18.43,COLEGIO MIGUEL ANTONIO CARO - AUT,BOGOTA D.C.,"BOGOTA, D.C",ALTO MAGDALENA,4.813,-74.031,Temp Aire 2 m,°C
395,0022075050,0068,2017-12-10T20:00:00.000,8,PARAMO DE YERBABUENA  - AUT,TOLIMA,RONCESVALLES,SALDAÑA,4.075805556,-75.70083333,Temp Aire 2 m,°C
396,0026155260,0068,2014-07-05T01:00:00.000,2.4,SENDERO LAGUNA VERDE  - AUT,CALDAS,VILLAMARIA,CAUCA,4.840666667,-75.36161111,Temp Aire 2 m,°C
397,2120000107,0068,2019-04-16T00:36:00.000,13.02,LA FISCALA - AUT,BOGOTA D.C.,"BOGOTA, D.C",ALTO MAGDALENA,4.536,-74.106,Temp Aire 2 m,°C
398,0051025060,0068,2008-12-23T04:00:00.000,20.1,BIOTOPO - AUT,NARIÑO,BARBACOAS,MIRA,1.408638889,-78.28161111,Temp Aire 2 m,°C
399,0026145506,0068,2018-07-17T22:25:00.000,22.04205,FILO BONITO  - AUT,CALDAS,BELALCAZAR,CAUCA,4.986358333,-75.84574722,Temp Aire 2 m,°C
400,2120700037,0068,2019-05-16T11:24:00.000,20.53,CASAS FISCALES ESCUELA DE ARTILLERÍA - AUT,BOGOTA D.C.,"BOGOTA, D.C",ALTO MAGDALENA,4.556,-74.125,Temp Aire 2 m,°C
401,0035075080,0068,2012-09-25T13:00:00.000,7.3,PARAMO RABANAL - AUT,BOYACÁ,VENTAQUEMADA,META,5.392388889,-73.56277778,Temp Aire 2 m,°C
402,0023085501,0068,2018-12-08T11:45:00.000,24.2965,COCORNA  - AUT,ANTIOQUIA,COCORNÁ,MEDIO MAGDALENA,6.061941667,-75.18666667,Temp Aire 2 m,°C
403,0024025090,0068,2018-02-27T09:00:00.000,22.3,MOGOTES - AUT,SANTANDER,MOGOTES,SOGAMOSO,6.47,-72.96888889,Temp Aire 2 m,°C
404,0021206780,0068,2014-12-12T18:40:00.000,16.2,LA INDEPENDENCIA FOPAE Fuera de Servicio,BOGOTA D.C.,"BOGOTA, D.C",ALTO MAGDALENA,4.617,-74.317,Temp Aire 2 m,°C
405,0026115501,0068,2016-08-03T11:45:00.000,24.3,MANUEL MARIA MALLARINO  - AUT,VALLE DEL CAUCA,TRUJILLO,CAUCA,4.213611111,-76.31497222,Temp Aire 2 m,°C
406,0021202180,0068,2010-12-14T10:05:00.000,14.6,QUIBA - FOPAE,BOGOTA D.C.,"BOGOTA, D.C",ALTO MAGDALENA,4.543,-74.156,Temp Aire 2 m,°C
407,0023055501,0068,2016-06-17T18:45:00.000,21.7,SANTA HELENA  - AUT,CALDAS,MARQUETALIA,MEDIO MAGDALENA,5.317497222,-74.99610833,Temp Aire 2 m,°C
408,0023025501,0068,2016-07-25T01:40:00.000,16.4,MANZANARES  - AUT,CALDAS,MANZANARES,MEDIO MAGDALENA,5.163913889,-75.11740833,Temp Aire 2 m,°C
409,0021201980,0068,2010-11-27T09:55:00.000,16.5,CERRO GUADALUPE - FOPAE,BOGOTA D.C.,"BOGOTA, D.C",ALTO MAGDALENA,4.567,-74.05,Temp Aire 2 m,°C
410,0023025501,0068,2019-02-20T01:25:00.000,17.76939,MANZANARES  - AUT,CALDAS,MANZANARES,MEDIO MAGDALENA,5.163913889,-75.11740833,Temp Aire 2 m,°C
411,0056010040,0068,2019-04-22T07:00:00.000,24.8,PR CHOCO: NUQUI,CHOCÓ,NUQUÍ,PACÍFICO - DIRECTOS,5.708,-77.266,Temp Aire 2 m,°C
412,0044035050,0068,2006-03-12T04:00:00.000,21.7,MACAGUAL - AUT,CAQUETA,FLORENCIA,CAQUETÁ,1.499722222,-75.661,Temp Aire 2 m,°C
413,0021202250,0068,2013-11-16T06:15:00.000,13.3,DOÑA JUANA - FOPAE,BOGOTA D.C.,"BOGOTA, D.C",ALTO MAGDALENA,4.5,-74.133,Temp Aire 2 m,°C
414,0021015501,0068,2017-07-01T08:40:00.000,21.89816,PITALITO  - AUT,HUILA,PITALITO,ALTO MAGDALENA,1.777527778,-76.19163889,Temp Aire 2 m,°C
415,1602500063,0068,2019-08-20T10:00:00.000,17.5,MUTISCUA - AUT,NORTE DE SANTANDER,MUTISCUA,CATATUMBO,7.299,-72.746,Temp Aire 2 m,°C
416,0023065505,0068,2018-11-29T02:00:00.000,18.6,CAPARRAPI - CAR,CUNDINAMARCA,CAPARRAPÍ,MEDIO MAGDALENA,5.34,-74.495,Temp Aire 2 m,°C
417,0021205515,0068,2019-05-04T13:50:00.000,14.607,MERENGO  - AUT,CUNDINAMARCA,SOACHA,ALTO MAGDALENA,4.7,-74.174,Temp Aire 2 m,°C
418,0023065501,0068,2017-03-02T07:50:00.000,17.5,PACHO  - AUT,CUNDINAMARCA,PACHO,MEDIO MAGDALENA,5.129127778,-74.15769722,Temp Aire 2 m,°C
419,0035085080,0068,2019-01-24T19:00:00.000,17.7,LA CAPILLA - AUT,BOYACÁ,LA CAPILLA,META,5.099194444,-73.436,Temp Aire 2 m,°C
420,0023065502,0068,2018-03-19T23:40:00.000,16.97003,LA PALMA  - AUT,CUNDINAMARCA,LA PALMA,MEDIO MAGDALENA,5.330266667,-74.40156111,Temp Aire 2 m,°C
421,0035035130,0068,2013-06-16T10:00:00.000,6,PARAMO CHINGAZA  - AUT,CUNDINAMARCA,GUASCA,META,4.713666667,-73.80325,Temp Aire 2 m,°C
422,0026035100,0068,2009-04-24T12:00:00.000,26.2,SUECIA HDA,CAUCA,EL TAMBO,CAUCA,2.48,-76.828,Temp Aire 2 m,°C
423,0023065502,0068,2018-04-17T02:55:00.000,18.17484,LA PALMA  - AUT,CUNDINAMARCA,LA PALMA,MEDIO MAGDALENA,5.330266667,-74.40156111,Temp Aire 2 m,°C
424,0026135503,0068,2017-09-04T23:15:00.000,19.5973,NARANJAL  - AUT,CALDAS,CHINCHINA,CAUCA,4.971944444,-75.65221944,Temp Aire 2 m,°C
425,0055015020,0068,2018-08-22T17:00:00.000,26.3,PR CHOCO: BAJO BAUDO,CHOCÓ,QUIBDÓ,BAUDÓ - DIRECTOS PACIFICO,4.958,-77.362,Temp Aire 2 m,°C
426,0021105501,0068,2016-08-04T06:25:00.000,15.7,ALGECIRAS  - AUT,HUILA,ALGECIRAS,ALTO MAGDALENA,2.595027778,-75.22852778,Temp Aire 2 m,°C
427,0035095120,0068,2006-09-14T22:00:00.000,0,AQUITANIA - AUT,BOYACÁ,AQUITANIA,META,5.556638889,-72.88175,Temp Aire 2 m,°C
428,0023025501,0068,2017-02-23T01:50:00.000,15.4,MANZANARES  - AUT,CALDAS,MANZANARES,MEDIO MAGDALENA,5.163913889,-75.11740833,Temp Aire 2 m,°C
429,0026125504,0068,2019-07-13T22:25:00.000,20.33779,PARAGUAICITO  - AUT,QUINDÍO,BUENAVISTA,CAUCA,4.395555556,-75.73416667,Temp Aire 2 m,°C
430,0021015502,0068,2019-05-30T20:10:00.000,17.24542,SAN AGUSTIN  - AUT,HUILA,SAN AGUSTÍN,ALTO MAGDALENA,1.851416667,-76.30433056,Temp Aire 2 m,°C
431,0026135502,0068,2019-02-22T07:00:00.000,17.18153,EL JAZMIN  - AUT,RISARALDA,SANTA ROSA DE CABAL,CAUCA,4.911944444,-75.62416389,Temp Aire 2 m,°C
432,0021205526,0068,2019-06-01T15:20:00.000,16.919,PEDRO PALO  - AUT,CUNDINAMARCA,TENA,ALTO MAGDALENA,4.691,-74.389,Temp Aire 2 m,°C
433,0052015501,0068,2017-09-03T14:30:00.000,27.79355,BALBOA  - AUT,CAUCA,BALBOA,PATÍA,2.125191667,-77.19266667,Temp Aire 2 m,°C
434,0026095320,0068,2014-07-07T09:00:00.000,24.7,EL VINCULO - AUT,VALLE DEL CAUCA,BUGA,CAUCA,3.834805556,-76.30000556,Temp Aire 2 m,°C
435,0024035370,0068,2017-07-21T13:00:00.000,10.7,EL ESPINO - AUT,BOYACÁ,EL ESPINO,SOGAMOSO,6.506722222,-72.45266667,Temp Aire 2 m,°C
436,0026125507,0068,2018-08-24T00:00:00.000,18.5298,ARTURO GOMEZ  - AUT,VALLE DEL CAUCA,ALCALÁ,CAUCA,4.671388889,-75.77721944,Temp Aire 2 m,°C
437,0016025503,0068,2017-10-02T18:05:00.000,17.95465,GRAMALOTE  - AUT,NORTE DE SANTANDER,GRAMALOTE,CATATUMBO,7.923163889,-72.83375556,Temp Aire 2 m,°C
438,0021201980,0068,2016-07-31T00:10:00.000,9.1,CERRO GUADALUPE - FOPAE,BOGOTA D.C.,"BOGOTA, D.C",ALTO MAGDALENA,4.567,-74.05,Temp Aire 2 m,°C
439,0052025501,0068,2016-07-30T11:35:00.000,22.4,LA VEGA  - AUT,CAUCA,LA VEGA,PATÍA,2.092941667,-76.81202778,Temp Aire 2 m,°C
440,0031095030,0068,2016-07-10T03:00:00.000,0,PTO INIRIDA,GUAINÍA,INÍRIDA,INÍRIDA,3.868,-67.932,Temp Aire 2 m,°C
441,0023025502,0068,2018-01-27T09:45:00.000,10.35072,ALMACAFE LETRAS  - AUT,CALDAS,MANIZALES,MEDIO MAGDALENA,5.044997222,-75.33221944,Temp Aire 2 m,°C
442,0021185501,0068,2018-08-17T18:15:00.000,20.81563,ROVIRA  - AUT,TOLIMA,ROVIRA,ALTO MAGDALENA,4.266666667,-75.28305556,Temp Aire 2 m,°C
443,0026195501,0068,2018-08-10T15:30:00.000,31.78221,ANDES  - AUT,ANTIOQUIA,ANDES,CAUCA,5.660108333,-75.91413889,Temp Aire 2 m,°C
444,0026125509,0068,2016-07-08T17:10:00.000,26.7,ESPERANZA LA  - AUT,QUINDÍO,PIJAO,CAUCA,4.299444444,-75.72508056,Temp Aire 2 m,°C
445,0035035110,0068,2014-10-18T13:00:00.000,30,SALINAS DE UPIN  - AUT,META,RESTREPO,META,4.273861111,-73.58686111,Temp Aire 2 m,°C
446,0015075501,0068,2017-03-05T18:00:00.000,27.6,AEROPUERTO PUERTO BOLIVAR  - AUT,LA GUAJIRA,URIBIA,CARIBE - GUAJIRA,12.22430556,-71.98288889,Temp Aire 2 m,°C
447,0016055501,0068,2018-05-20T14:10:00.000,23.38523,GABRIEL MARIA  - AUT,NORTE DE SANTANDER,CONVENCIÓN,CATATUMBO,8.412497222,-73.33944167,Temp Aire 2 m,°C
448,0021165501,0068,2018-07-19T16:45:00.000,21.7742,DOLORES  - AUT,TOLIMA,DOLORES,ALTO MAGDALENA,3.537155556,-74.82982778,Temp Aire 2 m,°C
449,0052025501,0068,2018-08-22T18:30:00.000,20.91347,LA VEGA  - AUT,CAUCA,LA VEGA,PATÍA,2.092941667,-76.81202778,Temp Aire 2 m,°C
450,0026155502,0068,2016-09-26T13:35:00.000,32.9,CENICAFE  - AUT,CALDAS,MANIZALES,CAUCA,4.991111111,-75.59749722,Temp Aire 2 m,°C
451,0023055502,0068,2019-04-15T16:05:00.000,21.70365,VILLARAZ  - AUT,CALDAS,PENSILVANIA,MEDIO MAGDALENA,5.383333333,-75.06638889,Temp Aire 2 m,°C
452,2120700037,0068,2019-02-16T23:24:00.000,13.69,CASAS FISCALES ESCUELA DE ARTILLERÍA - AUT,BOGOTA D.C.,"BOGOTA, D.C",ALTO MAGDALENA,4.556,-74.125,Temp Aire 2 m,°C
453,0026065501,0068,2016-06-30T00:55:00.000,20.2,JAMUNDI  - AUT,VALLE DEL CAUCA,JAMUNDÍ,CAUCA,3.215580556,-76.68021944,Temp Aire 2 m,°C
454,0024025501,0068,2019-01-13T21:25:00.000,17.06797,ALBERTO SANTOS  - AUT,SANTANDER,SOCORRO,SOGAMOSO,6.493052778,-73.22111111,Temp Aire 2 m,°C
455,0021206990,0068,2009-12-07T14:00:00.000,22.7,TIBAITATA - AUT,CUNDINAMARCA,MOSQUERA,ALTO MAGDALENA,4.691416667,-74.209,Temp Aire 2 m,°C
456,0026015030,0068,2012-01-10T05:00:00.000,6.9,PNN PURACE - AUT,CAUCA,PURACÉ (COCONUCO),CAUCA,2.356848889,-76.40354389,Temp Aire 2 m,°C
457,0011159010,0068,2014-01-26T12:00:00.000,29,CAPURGANA - TX GPRS,CHOCÓ,ACANDÍ,ATRATO - DARIÉN,8.616,-77.331,Temp Aire 2 m,°C
458,0026145507,0068,2018-01-28T20:20:00.000,21.36462,LAS TANGAS  - AUT,CALDAS,BELALCAZAR,CAUCA,5.038,-75.80599722,Temp Aire 2 m,°C
459,0026175501,0068,2018-08-11T21:10:00.000,22.50126,RAFAEL ESCOBAR  - AUT,CALDAS,SUPIA,CAUCA,5.45,-75.63305556,Temp Aire 2 m,°C
460,0021205501,0068,2017-08-27T15:10:00.000,24.67968,MESITAS DE SANTA INES  - AUT,CUNDINAMARCA,CACHIPAY,ALTO MAGDALENA,4.718611111,-74.45527778,Temp Aire 2 m,°C
461,0021202180,0068,2011-12-23T13:25:00.000,17.4,QUIBA - FOPAE,BOGOTA D.C.,"BOGOTA, D.C",ALTO MAGDALENA,4.543,-74.156,Temp Aire 2 m,°C
462,0026145504,0068,2018-11-06T21:45:00.000,16.52366,OSPIRMA  - AUT,RISARALDA,GUÁTICA,CAUCA,5.325552778,-75.812775,Temp Aire 2 m,°C
463,0052055501,0068,2018-05-20T10:40:00.000,20.15176,OSPINA PEREZ  - AUT,NARIÑO,CONSACÁ,PATÍA,1.254722222,-77.48777778,Temp Aire 2 m,°C
464,0023065503,0068,2018-02-15T01:00:00.000,16.34942,EL MIRADOR  - AUT,CUNDINAMARCA,SASAIMA,MEDIO MAGDALENA,4.95,-74.4,Temp Aire 2 m,°C
465,0026165502,0068,2019-08-01T12:35:00.000,24.53704,JARDIN  - AUT,ANTIOQUIA,JARDÍN,CAUCA,5.6,-75.84972222,Temp Aire 2 m,°C
466,0021045501,0068,2016-07-09T17:55:00.000,20,OPORAPA  - AUT,HUILA,OPORAPA,ALTO MAGDALENA,2.041941667,-76.01191667,Temp Aire 2 m,°C
467,0011115501,0068,2018-07-16T04:15:00.000,17.70061,CAÑASGORDAS  - AUT,ANTIOQUIA,CAÑASGORDAS,ATRATO - DARIÉN,6.748275,-76.03155556,Temp Aire 2 m,°C
468,0037015501,0068,2018-02-02T15:40:00.000,12.17727,LABATECA  - AUT,NORTE DE SANTANDER,LABATECA,ARAUCA,7.296058333,-72.49772778,Temp Aire 2 m,°C
469,0023055501,0068,2017-08-24T10:10:00.000,19.62925,SANTA HELENA  - AUT,CALDAS,MARQUETALIA,MEDIO MAGDALENA,5.317497222,-74.99610833,Temp Aire 2 m,°C
470,0032105080,0068,2010-01-31T11:00:00.000,37.1,SAN JOSE DEL GUAVIARE,GUAVIARE,SAN JOSÉ DEL GUAVIARE,GUAVIARE,2.553,-72.647,Temp Aire 2 m,°C
471,0023105070,0068,2016-08-15T16:00:00.000,29.1,MACEO - AUT,ANTIOQUIA,YOLOMBÓ,MEDIO MAGDALENA,6.571638889,-74.79472222,Temp Aire 2 m,°C
472,0021206980,0068,2016-10-01T02:00:00.000,13.3,SANTA CRUZ DE SIECHA  - AUT,CUNDINAMARCA,GUASCA,ALTO MAGDALENA,4.784277778,-73.87080556,Temp Aire 2 m,°C
473,0026255030,0068,2008-12-21T07:00:00.000,19,SANTA ISABEL VALDIVIA - AUT,ANTIOQUIA,VALDIVIA,CAUCA,7.157277778,-75.44222222,Temp Aire 2 m,°C
474,0025025030,0068,2016-09-16T17:00:00.000,32.7,AYAPEL,CÓRDOBA,AYAPEL,BAJO MAGDALENA- CAUCA -SAN JORGE,8.295,-75.165,Temp Aire 2 m,°C
475,0021035501,0068,2019-02-19T03:05:00.000,18.6085,ACEVEDO  - AUT,HUILA,ACEVEDO,ALTO MAGDALENA,1.763191667,-75.93224722,Temp Aire 2 m,°C
476,0024035410,0068,2011-09-12T06:00:00.000,10.5,SOGAMOSO - AUT,BOYACÁ,SOGAMOSO,SOGAMOSO,5.753333333,-72.91115278,Temp Aire 2 m,°C
477,0026125509,0068,2019-06-30T04:10:00.000,16.98923,ESPERANZA LA  - AUT,QUINDÍO,PIJAO,CAUCA,4.299444444,-75.72508056,Temp Aire 2 m,°C
478,0021202170,0068,2015-04-06T10:40:00.000,19,SIERRA MORENA - FOPAE,BOGOTA D.C.,"BOGOTA, D.C",ALTO MAGDALENA,4.567,-74.167,Temp Aire 2 m,°C
479,0021165502,0068,2018-08-12T02:40:00.000,18.24114,VILLARICA  - AUT,TOLIMA,VILLARRICA,ALTO MAGDALENA,3.955641667,-74.59178611,Temp Aire 2 m,°C
480,0022045502,0068,2019-07-09T22:40:00.000,19.14377,EL RUBY  - AUT,TOLIMA,PLANADAS,SALDAÑA,3.95,-75.66666667,Temp Aire 2 m,°C
481,0028045501,0068,2019-04-02T19:50:00.000,21.78199,PUEBLO BELLO  - AUT,CESAR,PUEBLO BELLO,CESAR,10.42166667,-73.57471944,Temp Aire 2 m,°C
482,0054077210,0068,2017-07-03T04:00:00.000,27.6,JUANCHACO - AUT,VALLE DEL CAUCA,BUENAVENTURA,SAN JUÁN,3.925147222,-77.34900556,Temp Aire 2 m,°C
483,0021206900,0068,2015-07-19T19:00:00.000,9.9,LA ESPERANZA USME - FOPAE,BOGOTA D.C.,"BOGOTA, D.C",META,4.45,-74.1,Temp Aire 2 m,°C
484,2120000105,0068,2019-06-08T10:16:00.000,15.43,EL CODITO - AUT,BOGOTA D.C.,"BOGOTA, D.C",ALTO MAGDALENA,4.763,-74.022,Temp Aire 2 m,°C
485,0025025350,0068,2007-06-10T02:00:00.000,24.3,PUERTA ROJA - AUT,SUCRE,SINCELEJO,BAJO MAGDALENA- CAUCA -SAN JORGE,9.316388889,-75.3875,Temp Aire 2 m,°C
486,0026125502,0068,2018-01-25T23:05:00.000,17.45748,CAICEDONIA  - AUT,VALLE DEL CAUCA,CAICEDONIA,CAUCA,4.297558333,-75.86396111,Temp Aire 2 m,°C
487,0021206600,0068,2012-12-14T02:59:00.000,11.3,NUEVA GENERACION  - AUT,BOGOTA,"BOGOTA, D.C",ALTO MAGDALENA,4.782222222,-74.09433333,Temp Aire 2 m,°C
488,0021065501,0068,2019-04-07T01:45:00.000,18.3799,JORGE VILLAMIL  - AUT,HUILA,GIGANTE,ALTO MAGDALENA,2.325552778,-75.50972222,Temp Aire 2 m,°C
489,0029035200,0068,2013-04-10T21:00:00.000,29,REPELON - AUT,ATLANTICO,REPELÓN,BAJO MAGDALENA,10.49,-75.12694444,Temp Aire 2 m,°C
490,2120000106,0068,2019-07-02T05:27:00.000,8.5,GRAN BRETAÑA - AUT,BOGOTA D.C.,"BOGOTA, D.C",ALTO MAGDALENA,4.512,-74.164,Temp Aire 2 m,°C
491,0026055100,0068,2015-07-03T02:00:00.000,16.6,FARALLONES - AUT,VALLE DEL CAUCA,CALI,CAUCA,3.416055556,-76.6515,Temp Aire 2 m,°C
492,0021202250,0068,2014-12-08T01:00:00.000,14.1,DOÑA JUANA - FOPAE,BOGOTA D.C.,"BOGOTA, D.C",ALTO MAGDALENA,4.5,-74.133,Temp Aire 2 m,°C
493,0026055501,0068,2017-12-08T06:40:00.000,18.33026,GINEBRA  - AUT,VALLE DEL CAUCA,GINEBRA,CAUCA,3.738388889,-76.22083056,Temp Aire 2 m,°C
494,0011025501,0068,2017-11-16T04:45:00.000,15.78405,CARMEN DE ATRATO  - AUT,CHOCO,EL CARMEN,ATRATO - DARIÉN,5.888719444,-76.14516667,Temp Aire 2 m,°C
495,0021202170,0068,2014-02-04T13:20:00.000,19.7,SIERRA MORENA - FOPAE,BOGOTA D.C.,"BOGOTA, D.C",ALTO MAGDALENA,4.567,-74.167,Temp Aire 2 m,°C
496,0021185090,0068,2009-06-11T05:00:00.000,23.9,NATAIMA - AUT,TOLIMA,ESPINAL,ALTO MAGDALENA,4.188138889,-74.96047222,Temp Aire 2 m,°C
497,0021208480,0068,2016-07-31T03:05:00.000,14.5,KENNEDY - FOPAE,BOGOTA D.C.,"BOGOTA, D.C",ALTO MAGDALENA,4.633,-74.15,Temp Aire 2 m,°C
498,0026125506,0068,2017-06-16T00:10:00.000,17.84846,EL AGRADO  - AUT,QUINDÍO,MONTENEGRO,CAUCA,4.518333333,-75.7925,Temp Aire 2 m,°C
499,2120000104,0068,2018-10-29T01:47:00.000,9.85,COLEGIO MIGUEL ANTONIO CARO - AUT,BOGOTA D.C.,"BOGOTA, D.C",ALTO MAGDALENA,4.813,-74.031,Temp Aire 2 m,°C
500,0024025090,0068,2010-10-15T07:00:00.000,16.5,MOGOTES - AUT,SANTANDER,MOGOTES,SOGAMOSO,6.47,-72.96888889,Temp Aire 2 m,°C
501,0029065130,0068,2009-09-30T21:00:00.000,27.7,LA GRAN VIA - AUT,MAGDALENA,ZONA BANANERA,BAJO MAGDALENA,10.85,-74.13333333,Temp Aire 2 m,°C
502,0023125501,0068,2017-08-26T22:45:00.000,17.54577,PAUNA  - AUT,BOYACÁ,PAUNA,MEDIO MAGDALENA,5.657130556,-73.96032778,Temp Aire 2 m,°C
503,2120000107,0068,2019-03-06T19:58:00.000,13.55,LA FISCALA - AUT,BOGOTA D.C.,"BOGOTA, D.C",ALTO MAGDALENA,4.536,-74.106,Temp Aire 2 m,°C
504,0024015501,0068,2016-08-30T00:10:00.000,15.2,BERTHA  - AUT,BOYACÁ,MONIQUIRÁ,SOGAMOSO,5.882777778,-73.57333056,Temp Aire 2 m,°C
505,0026055100,0068,2016-06-08T23:00:00.000,15.2,FARALLONES - AUT,VALLE DEL CAUCA,CALI,CAUCA,3.416055556,-76.6515,Temp Aire 2 m,°C
506,0024035360,0068,2008-02-05T12:00:00.000,23.9,SOCHA - AUT,BOYACÁ,SOCHA,SOGAMOSO,5.985416667,-72.99702778,Temp Aire 2 m,°C
507,0037045010,0068,2019-04-25T20:00:00.000,23.6,SARAVENA  - AUT,ARAUCA,SARAVENA,ARAUCA,6.946388889,-71.89055556,Temp Aire 2 m,°C
508,0035185010,0068,2019-06-04T19:00:00.000,22.7,LA PALOMERA - AUT,META,PUERTO LÓPEZ,META,4.260361111,-72.56447222,Temp Aire 2 m,°C
509,0015085050,0068,2008-09-28T07:00:00.000,27.7,TOROMANA - AUT,LA GUAJIRA,URIBIA,CARIBE - GUAJIRA,12.08352778,-71.21094444,Temp Aire 2 m,°C
510,0021015070,0068,2011-12-03T14:00:00.000,19.6,LOS GUACHAROS  - AUT,HUILA,PALESTINA,ALTO MAGDALENA,1.675833,-76.106841,Temp Aire 2 m,°C
511,0026055100,0068,2018-10-20T23:00:00.000,12.8,FARALLONES - AUT,VALLE DEL CAUCA,CALI,CAUCA,3.416055556,-76.6515,Temp Aire 2 m,°C
512,0026125507,0068,2017-11-26T11:45:00.000,28.05822,ARTURO GOMEZ  - AUT,VALLE DEL CAUCA,ALCALÁ,CAUCA,4.671388889,-75.77721944,Temp Aire 2 m,°C
513,0053115501,0068,2018-11-16T01:55:00.000,17.97339,DAGUA  - AUT,VALLE DEL CAUCA,DAGUA,TAPAJE - DAGUA - DIRECTOS,3.610441667,-76.63785833,Temp Aire 2 m,°C
514,0026205501,0068,2018-05-18T05:55:00.000,17.07361,EL ROSARIO  - AUT,ANTIOQUIA,VENECIA,CAUCA,5.625830556,-75.70527778,Temp Aire 2 m,°C
515,0052035501,0068,2017-10-12T19:10:00.000,18.23523,EL SAUCE  - AUT,NARIÑO,LA UNIÓN,PATÍA,1.615555556,-77.10971944,Temp Aire 2 m,°C
516,0027015320,0068,2010-02-03T09:00:00.000,17,ARAGON - AUT,ANTIOQUIA,SANTA ROSA DE OSOS,NECHÍ,6.781083333,-75.560888889,Temp Aire 2 m,°C
517,0054035501,0068,2018-11-19T16:30:00.000,21.03898,SANTIAGO GUTIERREZ  - AUT,VALLE DEL CAUCA,ARGELIA,SAN JUÁN,4.726388889,-76.11446944,Temp Aire 2 m,°C
518,0021209940,0068,2016-01-09T15:20:00.000,30.4,GRAVILLERAS - FOPAE,BOGOTA D.C.,"BOGOTA, D.C",ALTO MAGDALENA,4.533,-74.117,Temp Aire 2 m,°C
519,0021202250,0068,2012-01-18T17:55:00.000,14,DOÑA JUANA - FOPAE,BOGOTA D.C.,"BOGOTA, D.C",ALTO MAGDALENA,4.5,-74.133,Temp Aire 2 m,°C
520,0021206780,0068,2015-02-24T11:55:00.000,19.2,LA INDEPENDENCIA FOPAE Fuera de Servicio,BOGOTA D.C.,"BOGOTA, D.C",ALTO MAGDALENA,4.617,-74.317,Temp Aire 2 m,°C
521,0021201980,0068,2013-07-11T22:30:00.000,10.3,CERRO GUADALUPE - FOPAE,BOGOTA D.C.,"BOGOTA, D.C",ALTO MAGDALENA,4.567,-74.05,Temp Aire 2 m,°C
522,0026195502,0068,2018-07-19T17:35:00.000,24.58061,CIUDAD BOLIVAR  - AUT,ANTIOQUIA,CIUDAD BOLÍVAR,CAUCA,5.868666667,-75.99044167,Temp Aire 2 m,°C
523,0026065502,0068,2018-03-30T09:45:00.000,21.82446,TRINIDAD LA  - AUT,CAUCA,PIENDAMÓ,CAUCA,2.750555556,-76.57916667,Temp Aire 2 m,°C
524,0026155260,0068,2016-09-07T03:00:00.000,2.7,SENDERO LAGUNA VERDE  - AUT,CALDAS,VILLAMARIA,CAUCA,4.840666667,-75.36161111,Temp Aire 2 m,°C
525,0021201980,0068,2015-09-28T00:20:00.000,10.3,CERRO GUADALUPE - FOPAE,BOGOTA D.C.,"BOGOTA, D.C",ALTO MAGDALENA,4.567,-74.05,Temp Aire 2 m,°C
526,0023065501,0068,2017-08-20T22:25:00.000,17.20977,PACHO  - AUT,CUNDINAMARCA,PACHO,MEDIO MAGDALENA,5.129127778,-74.15769722,Temp Aire 2 m,°C
527,0026055100,0068,2019-01-14T23:00:00.000,13.6,FARALLONES - AUT,VALLE DEL CAUCA,CALI,CAUCA,3.416055556,-76.6515,Temp Aire 2 m,°C
528,2120700038,0068,2019-01-10T10:08:00.000,14.96,SAN FRANCISCO - AUT,BOGOTA D.C.,"BOGOTA, D.C",ALTO MAGDALENA,4.562,-74.149,Temp Aire 2 m,°C
529,0021206980,0068,2015-11-28T13:00:00.000,12.8,SANTA CRUZ DE SIECHA  - AUT,CUNDINAMARCA,GUASCA,ALTO MAGDALENA,4.784277778,-73.87080556,Temp Aire 2 m,°C
530,0021015502,0068,2017-09-18T05:35:00.000,13.48004,SAN AGUSTIN  - AUT,HUILA,SAN AGUSTÍN,ALTO MAGDALENA,1.851416667,-76.30433056,Temp Aire 2 m,°C
531,0021085501,0068,2017-09-04T12:45:00.000,32.88848,TERUEL  - AUT,HUILA,TERUEL,ALTO MAGDALENA,2.762997222,-75.61144167,Temp Aire 2 m,°C
532,0021215190,0068,2007-02-28T05:00:00.000,10.3,CAJAMARCA - AUT,TOLIMA,CAJAMARCA,ALTO MAGDALENA,4.435666667,-75.50036111,Temp Aire 2 m,°C
533,0026180180,0068,2018-10-09T21:00:00.000,12.8,SONSON,ANTIOQUIA,SONSÓN,CAUCA,5.71525,-75.2945,Temp Aire 2 m,°C
534,2120000104,0068,2019-07-30T09:34:00.000,13.94,COLEGIO MIGUEL ANTONIO CARO - AUT,BOGOTA D.C.,"BOGOTA, D.C",ALTO MAGDALENA,4.813,-74.031,Temp Aire 2 m,°C
535,0026125502,0068,2017-06-30T14:45:00.000,28.52563,CAICEDONIA  - AUT,VALLE DEL CAUCA,CAICEDONIA,CAUCA,4.297558333,-75.86396111,Temp Aire 2 m,°C
536,0021205523,0068,2019-04-13T17:40:00.000,16.197,UNIVERSIDAD SANTO TOMÁS  - AUT,BOGOTA,"BOGOTA, D.C",ALTO MAGDALENA,4.788,-74.05,Temp Aire 2 m,°C
537,0026125507,0068,2018-12-10T10:50:00.000,26.05544,ARTURO GOMEZ  - AUT,VALLE DEL CAUCA,ALCALÁ,CAUCA,4.671388889,-75.77721944,Temp Aire 2 m,°C
538,0054035501,0068,2017-08-10T23:15:00.000,18.84156,SANTIAGO GUTIERREZ  - AUT,VALLE DEL CAUCA,ARGELIA,SAN JUÁN,4.726388889,-76.11446944,Temp Aire 2 m,°C
539,0026125501,0068,2017-12-20T08:00:00.000,18.55574,GENOVA  - AUT,QUINDÍO,GÉNOVA,CAUCA,4.204416667,-75.76866667,Temp Aire 2 m,°C
540,0026157170,0068,2017-11-30T11:00:00.000,3.6,CONEJERAS2 - AUT,CALDAS,VILLAMARIA,CAUCA,4.820388889,-75.37713889,Temp Aire 2 m,°C
541,0024025090,0068,2017-06-03T11:00:00.000,27.2,MOGOTES - AUT,SANTANDER,MOGOTES,SOGAMOSO,6.47,-72.96888889,Temp Aire 2 m,°C
542,0026155230,0068,2011-08-16T02:00:00.000,15,EMAS - AUT,CALDAS,MANIZALES,CAUCA,5.08525,-75.50713889,Temp Aire 2 m,°C
543,0021202220,0068,2011-02-20T11:15:00.000,18.8,PARAISO - FOPAE,BOGOTA D.C.,"BOGOTA, D.C",ALTO MAGDALENA,4.617,-74.05,Temp Aire 2 m,°C
544,0024055080,0068,2009-07-13T18:00:00.000,34.2,VIZCAINA LA LIZAMA  - AUT,SANTANDER,BARRANCABERMEJA,SOGAMOSO,6.982972222,-73.70488889,Temp Aire 2 m,°C
545,0055015010,0068,2017-06-15T14:00:00.000,31.7,PIE DE PATO - AUT,CHOCO,ALTO BAUDÓ (PIE DE PATO),BAUDÓ - DIRECTOS PACIFICO,5.521083333,-76.97316667,Temp Aire 2 m,°C
546,0021206810,0068,2014-09-07T21:00:00.000,14.4,SAN BENITO - FOPAE,BOGOTA D.C.,"BOGOTA, D.C",ALTO MAGDALENA,4.55,-74.233,Temp Aire 2 m,°C
547,0026125290,0068,2006-06-04T08:00:00.000,20,ARMENIA - AUT,QUINDÍO,ARMENIA,CAUCA,4.531583333,-75.69069444,Temp Aire 2 m,°C
548,0021206930,0068,2007-04-30T20:00:00.000,9.5,PARAMO GUERRERO  - AUT,CUNDINAMARCA,ZIPAQUIRÁ,ALTO MAGDALENA,5.086444444,-74.02216667,Temp Aire 2 m,°C
549,0035085070,0068,2011-03-28T20:00:00.000,21.4,SANTA MARIA - AUT,BOYACÁ,SANTA MARÍA,META,4.84125,-73.25669444,Temp Aire 2 m,°C
550,0026105250,0068,2019-03-30T04:00:00.000,20.4,ZARAGOZA - AUT,VALLE DEL CAUCA,CARTAGO,CAUCA,4.689777778,-75.92519444,Temp Aire 2 m,°C
551,0021201980,0068,2013-05-22T07:50:00.000,13.5,CERRO GUADALUPE - FOPAE,BOGOTA D.C.,"BOGOTA, D.C",ALTO MAGDALENA,4.567,-74.05,Temp Aire 2 m,°C
552,0035025501,0068,2017-06-24T05:05:00.000,15.62658,QUETAME  - AUT,CUNDINAMARCA,QUETAME,META,4.297941667,-73.87238889,Temp Aire 2 m,°C
553,0036015501,0068,2018-07-08T00:00:00.000,20.09469,TAMARA  - AUT,CASANARE,TÁMARA,CASANARE,5.872219444,-72.11944167,Temp Aire 2 m,°C
554,0028025120,0068,2018-09-14T20:00:00.000,14.1,SERRANIA DEL PERIJA  - AUT,CESAR,AGUSTÍN CODAZZI,CESAR,10.02908333,-73.04619444,Temp Aire 2 m,°C
555,0023085501,0068,2019-07-06T19:35:00.000,20.02502,COCORNA  - AUT,ANTIOQUIA,COCORNÁ,MEDIO MAGDALENA,6.061941667,-75.18666667,Temp Aire 2 m,°C
556,0021195170,0068,2018-01-07T15:00:00.000,12.1,PAQUILO - AUT,CUNDINAMARCA,CABRERA,ALTO MAGDALENA,3.993611111,-74.39805556,Temp Aire 2 m,°C
557,0035185010,0068,2013-03-05T01:00:00.000,22.5,LA PALOMERA - AUT,META,PUERTO LÓPEZ,META,4.260361111,-72.56447222,Temp Aire 2 m,°C
558,0026125504,0068,2018-02-20T03:00:00.000,17.3448,PARAGUAICITO  - AUT,QUINDÍO,BUENAVISTA,CAUCA,4.395555556,-75.73416667,Temp Aire 2 m,°C
559,0036015020,0068,2009-07-01T11:00:00.000,23.9,EL DIAMANTE - AUT,CASANARE,PAZ DE ARIPORO,META,5.816194444,-71.41983333,Temp Aire 2 m,°C
560,0052025080,0068,2013-01-24T09:00:00.000,25.3,ESTRECHO PATIA  - AUT,CAUCA,PATÍA (EL BORDO),PATÍA,1.962777778,-77.12027778,Temp Aire 2 m,°C
561,0021202180,0068,2012-01-11T22:40:00.000,13.7,QUIBA - FOPAE,BOGOTA D.C.,"BOGOTA, D.C",ALTO MAGDALENA,4.543,-74.156,Temp Aire 2 m,°C
562,0051025060,0068,2015-04-23T01:00:00.000,22,BIOTOPO - AUT,NARIÑO,BARBACOAS,MIRA,1.408638889,-78.28161111,Temp Aire 2 m,°C
563,0026225060,0068,2008-03-23T23:00:00.000,22.4,HACIENDA COTOVE - AUT,ANTIOQUIA,SANTA FE DE ANTIOQUIA,CAUCA,6.533916667,-75.82733333,Temp Aire 2 m,°C
564,0023085501,0068,2018-03-05T08:00:00.000,18.44493,COCORNA  - AUT,ANTIOQUIA,COCORNÁ,MEDIO MAGDALENA,6.061941667,-75.18666667,Temp Aire 2 m,°C
565,0026125501,0068,2017-08-18T14:00:00.000,25.6405,GENOVA  - AUT,QUINDÍO,GÉNOVA,CAUCA,4.204416667,-75.76866667,Temp Aire 2 m,°C
566,0054035501,0068,2019-08-08T03:40:00.000,18.23855,SANTIAGO GUTIERREZ  - AUT,VALLE DEL CAUCA,ARGELIA,SAN JUÁN,4.726388889,-76.11446944,Temp Aire 2 m,°C
567,0026085170,0068,2007-10-17T08:00:00.000,24.8,BASE AEREA MARCO FIDEL SUAREZ  - AUT,VALLE DEL CAUCA,CALI,CAUCA,3.4545,-76.49972222,Temp Aire 2 m,°C
568,0026125508,0068,2016-06-22T18:45:00.000,24.4,LACATALINA  - AUT,RISARALDA,PEREIRA,CAUCA,4.7475,-75.73805556,Temp Aire 2 m,°C
569,0022045502,0068,2018-08-03T07:25:00.000,19.94621,EL RUBY  - AUT,TOLIMA,PLANADAS,SALDAÑA,3.95,-75.66666667,Temp Aire 2 m,°C
570,0023025501,0068,2019-07-03T19:10:00.000,20.93498,MANZANARES  - AUT,CALDAS,MANZANARES,MEDIO MAGDALENA,5.163913889,-75.11740833,Temp Aire 2 m,°C
571,0025025280,0068,2008-08-29T21:40:00.000,0,EL TESORO IDEAM  - AUT,SUCRE,MORROA,BAJO MAGDALENA- CAUCA -SAN JORGE,9.357083333,-75.28925,Temp Aire 2 m,°C
572,0026145504,0068,2019-05-28T15:40:00.000,21.05192,OSPIRMA  - AUT,RISARALDA,GUÁTICA,CAUCA,5.325552778,-75.812775,Temp Aire 2 m,°C
573,0026135502,0068,2017-08-08T10:40:00.000,23.91053,EL JAZMIN  - AUT,RISARALDA,SANTA ROSA DE CABAL,CAUCA,4.911944444,-75.62416389,Temp Aire 2 m,°C
574,0052035501,0068,2019-05-17T18:10:00.000,17.6281,EL SAUCE  - AUT,NARIÑO,LA UNIÓN,PATÍA,1.615555556,-77.10971944,Temp Aire 2 m,°C
575,0052015501,0068,2019-05-18T13:50:00.000,21.59606,BALBOA  - AUT,CAUCA,BALBOA,PATÍA,2.125191667,-77.19266667,Temp Aire 2 m,°C
576,0023065501,0068,2017-10-19T02:05:00.000,18.39462,PACHO  - AUT,CUNDINAMARCA,PACHO,MEDIO MAGDALENA,5.129127778,-74.15769722,Temp Aire 2 m,°C
577,0021202170,0068,2013-11-09T10:10:00.000,19,SIERRA MORENA - FOPAE,BOGOTA D.C.,"BOGOTA, D.C",ALTO MAGDALENA,4.567,-74.167,Temp Aire 2 m,°C
578,0024015503,0068,2019-03-09T17:15:00.000,22.88326,CONFINES  - AUT,SANTANDER,CONFINES,SOGAMOSO,6.373027778,-73.20760833,Temp Aire 2 m,°C
579,0023015501,0068,2017-10-25T06:55:00.000,20.40487,FRESNO  - AUT,TOLIMA,FRESNO,MEDIO MAGDALENA,5.155638889,-75.00313611,Temp Aire 2 m,°C
580,0021202200,0068,2014-05-28T00:05:00.000,13.1,VITELMA,BOGOTA D.C.,"BOGOTA, D.C",META,4.575,-74.072,Temp Aire 2 m,°C
581,0026135503,0068,2018-08-25T18:35:00.000,21.98993,NARANJAL  - AUT,CALDAS,CHINCHINA,CAUCA,4.971944444,-75.65221944,Temp Aire 2 m,°C
582,0029065130,0068,2010-02-14T12:00:00.000,33.1,LA GRAN VIA - AUT,MAGDALENA,ZONA BANANERA,BAJO MAGDALENA,10.85,-74.13333333,Temp Aire 2 m,°C
583,0026145501,0068,2019-07-19T15:20:00.000,27.59089,APIA  - AUT,RISARALDA,APÍA,CAUCA,5.105055556,-75.93305556,Temp Aire 2 m,°C
584,0021197430,0068,2008-03-23T12:00:00.000,29.6,PROVIDENCIA - PROVIDENCIA,CUNDINAMARCA,FUSAGASUGÁ,ALTO MAGDALENA,4.367,-74.3,Temp Aire 2 m,°C
585,0016025503,0068,2019-03-14T02:05:00.000,16.3066,GRAMALOTE  - AUT,NORTE DE SANTANDER,GRAMALOTE,CATATUMBO,7.923163889,-72.83375556,Temp Aire 2 m,°C
586,0026155260,0068,2009-08-20T16:00:00.000,7.6,SENDERO LAGUNA VERDE  - AUT,CALDAS,VILLAMARIA,CAUCA,4.840666667,-75.36161111,Temp Aire 2 m,°C
587,0046015030,0068,2010-03-16T18:00:00.000,22.9,SAN VICENTE DEL CAGUAN  - AUT,CAQUETA,SAN VICENTE DEL CAGUÁN,CAGUÁN,2.063,-74.76269444,Temp Aire 2 m,°C
588,0027015501,0068,2017-03-23T14:40:00.000,20.2,YOLOMBO  - AUT,ANTIOQUIA,YOLOMBÓ,NECHÍ,6.580958333,-75.11487778,Temp Aire 2 m,°C
589,0021206940,0068,2010-02-26T11:00:00.000,14.4,CIUDAD BOLIVAR,BOGOTA D.C.,"BOGOTA, D.C",ALTO MAGDALENA,4.577,-74.177,Temp Aire 2 m,°C
590,0053115502,0068,2017-07-31T19:15:00.000,18.62009,JULIO FERNANDEZ  - AUT,VALLE DEL CAUCA,RESTREPO,TAPAJE - DAGUA - DIRECTOS,3.809163889,-76.53305556,Temp Aire 2 m,°C
591,0035095120,0068,2014-01-22T09:00:00.000,16,AQUITANIA - AUT,BOYACÁ,AQUITANIA,META,5.556638889,-72.88175,Temp Aire 2 m,°C
592,0026145508,0068,2017-08-26T01:55:00.000,17.94568,SAN JOSE  - AUT,CALDAS,SAN JOSE,CAUCA,5.094972222,-75.79174722,Temp Aire 2 m,°C
593,0026125509,0068,2018-08-20T08:20:00.000,20.18863,ESPERANZA LA  - AUT,QUINDÍO,PIJAO,CAUCA,4.299444444,-75.72508056,Temp Aire 2 m,°C
594,0035095120,0068,2007-07-27T09:00:00.000,11.3,AQUITANIA - AUT,BOYACÁ,AQUITANIA,META,5.556638889,-72.88175,Temp Aire 2 m,°C
595,2120000104,0068,2019-08-07T14:48:00.000,17.5,COLEGIO MIGUEL ANTONIO CARO - AUT,BOGOTA D.C.,"BOGOTA, D.C",ALTO MAGDALENA,4.813,-74.031,Temp Aire 2 m,°C
596,0052025501,0068,2017-02-25T02:10:00.000,15.3,LA VEGA  - AUT,CAUCA,LA VEGA,PATÍA,2.092941667,-76.81202778,Temp Aire 2 m,°C
597,0024035360,0068,2013-12-28T23:00:00.000,12.1,SOCHA - AUT,BOYACÁ,SOCHA,SOGAMOSO,5.985416667,-72.99702778,Temp Aire 2 m,°C
598,0023025502,0068,2016-08-24T03:20:00.000,4.5,ALMACAFE LETRAS  - AUT,CALDAS,MANIZALES,MEDIO MAGDALENA,5.044997222,-75.33221944,Temp Aire 2 m,°C
599,0026125507,0068,2017-11-05T17:10:00.000,17.60912,ARTURO GOMEZ  - AUT,VALLE DEL CAUCA,ALCALÁ,CAUCA,4.671388889,-75.77721944,Temp Aire 2 m,°C
600,0027015310,0068,2005-08-26T10:00:00.000,23.8,METROMEDELLIN - AUT,ANTIOQUIA,BELLO,NECHÍ,6.32975,-75.55211111,Temp Aire 2 m,°C
601,0023125501,0068,2017-05-18T04:15:00.000,18.2,PAUNA  - AUT,BOYACÁ,PAUNA,MEDIO MAGDALENA,5.657130556,-73.96032778,Temp Aire 2 m,°C
602,0052055170,0068,2014-01-30T10:00:00.000,16.2,LA JOSEFINA - AUT,NARIÑO,CONTADERO,PATÍA,0.930305556,-77.49119444,Temp Aire 2 m,°C
603,0022025501,0068,2016-06-05T14:10:00.000,25,ATACO  - AUT,TOLIMA,ATACO,SALDAÑA,3.416666667,-75.63305556,Temp Aire 2 m,°C
604,0026195502,0068,2017-03-15T16:20:00.000,24.5,CIUDAD BOLIVAR  - AUT,ANTIOQUIA,CIUDAD BOLÍVAR,CAUCA,5.868666667,-75.99044167,Temp Aire 2 m,°C
605,0028045501,0068,2018-03-30T19:40:00.000,21.53611,PUEBLO BELLO  - AUT,CESAR,PUEBLO BELLO,CESAR,10.42166667,-73.57471944,Temp Aire 2 m,°C
606,0026175501,0068,2018-09-10T19:20:00.000,21.98853,RAFAEL ESCOBAR  - AUT,CALDAS,SUPIA,CAUCA,5.45,-75.63305556,Temp Aire 2 m,°C
607,0026125505,0068,2018-11-28T07:35:00.000,18.0095,LA BELLA  - AUT,QUINDÍO,CALARCÁ,CAUCA,4.501111111,-75.67138889,Temp Aire 2 m,°C
608,0026125505,0068,2018-12-23T21:20:00.000,19.50942,LA BELLA  - AUT,QUINDÍO,CALARCÁ,CAUCA,4.501111111,-75.67138889,Temp Aire 2 m,°C
609,0021045501,0068,2019-07-19T07:50:00.000,16.3219,OPORAPA  - AUT,HUILA,OPORAPA,ALTO MAGDALENA,2.041941667,-76.01191667,Temp Aire 2 m,°C
610,0021202250,0068,2011-07-26T14:40:00.000,17.4,DOÑA JUANA - FOPAE,BOGOTA D.C.,"BOGOTA, D.C",ALTO MAGDALENA,4.5,-74.133,Temp Aire 2 m,°C
611,0035075080,0068,2011-01-09T01:00:00.000,7.5,PARAMO RABANAL - AUT,BOYACÁ,VENTAQUEMADA,META,5.392388889,-73.56277778,Temp Aire 2 m,°C
612,0052055501,0068,2017-02-24T09:15:00.000,23.2,OSPINA PEREZ  - AUT,NARIÑO,CONSACÁ,PATÍA,1.254722222,-77.48777778,Temp Aire 2 m,°C
613,0026125505,0068,2017-11-07T01:55:00.000,18.2065,LA BELLA  - AUT,QUINDÍO,CALARCÁ,CAUCA,4.501111111,-75.67138889,Temp Aire 2 m,°C
614,0026055501,0068,2017-07-17T19:30:00.000,21.09399,GINEBRA  - AUT,VALLE DEL CAUCA,GINEBRA,CAUCA,3.738388889,-76.22083056,Temp Aire 2 m,°C
615,0021055501,0068,2018-04-03T01:40:00.000,16.52302,SIMON CAMPOS  - AUT,HUILA,LA PLATA,ALTO MAGDALENA,2.345830556,-75.87805556,Temp Aire 2 m,°C
616,0021045501,0068,2018-10-15T02:30:00.000,17.27819,OPORAPA  - AUT,HUILA,OPORAPA,ALTO MAGDALENA,2.041941667,-76.01191667,Temp Aire 2 m,°C
617,0029035200,0068,2015-12-08T10:00:00.000,30.1,REPELON - AUT,ATLANTICO,REPELÓN,BAJO MAGDALENA,10.49,-75.12694444,Temp Aire 2 m,°C
618,2120000104,0068,2019-01-07T08:18:00.000,10.95,COLEGIO MIGUEL ANTONIO CARO - AUT,BOGOTA D.C.,"BOGOTA, D.C",ALTO MAGDALENA,4.813,-74.031,Temp Aire 2 m,°C
619,0026195502,0068,2017-07-13T07:35:00.000,17.87256,CIUDAD BOLIVAR  - AUT,ANTIOQUIA,CIUDAD BOLÍVAR,CAUCA,5.868666667,-75.99044167,Temp Aire 2 m,°C
620,0025025350,0068,2011-08-02T10:00:00.000,29.6,PUERTA ROJA - AUT,SUCRE,SINCELEJO,BAJO MAGDALENA- CAUCA -SAN JORGE,9.316388889,-75.3875,Temp Aire 2 m,°C
621,0021015501,0068,2019-01-17T15:25:00.000,26.27625,PITALITO  - AUT,HUILA,PITALITO,ALTO MAGDALENA,1.777527778,-76.19163889,Temp Aire 2 m,°C
622,0021215501,0068,2017-11-28T07:25:00.000,19.05121,ESPERANZA LA  - AUT,TOLIMA,IBAGUÉ,ALTO MAGDALENA,4.45,-75.25,Temp Aire 2 m,°C
623,0027015310,0068,2017-05-31T11:00:00.000,23.6,METROMEDELLIN - AUT,ANTIOQUIA,BELLO,NECHÍ,6.32975,-75.55211111,Temp Aire 2 m,°C
624,0021202230,0068,2013-03-10T05:35:00.000,12.5,UAN SEDE USME - FOPAE,BOGOTA D.C.,"BOGOTA, D.C",ALTO MAGDALENA,4.467,-74.117,Temp Aire 2 m,°C
625,0022025040,0068,2008-02-18T13:00:00.000,5.2,EL DIABLO,CAUCA,PÁEZ (BELALCÁZAR),ALTO MAGDALENA,2.978,-76.064,Temp Aire 2 m,°C
626,0052025501,0068,2019-05-05T04:35:00.000,17.39948,LA VEGA  - AUT,CAUCA,LA VEGA,PATÍA,2.092941667,-76.81202778,Temp Aire 2 m,°C
627,0053115502,0068,2016-07-09T07:30:00.000,19.4,JULIO FERNANDEZ  - AUT,VALLE DEL CAUCA,RESTREPO,TAPAJE - DAGUA - DIRECTOS,3.809163889,-76.53305556,Temp Aire 2 m,°C
628,0026085501,0068,2018-11-14T09:35:00.000,23.35914,LA CELIA  - AUT,RISARALDA,LA CELIA,CAUCA,5.001330556,-75.998,Temp Aire 2 m,°C
629,0027015501,0068,2018-04-26T13:30:00.000,23.96964,YOLOMBO  - AUT,ANTIOQUIA,YOLOMBÓ,NECHÍ,6.580958333,-75.11487778,Temp Aire 2 m,°C
630,0021202200,0068,2013-07-08T12:05:00.000,18.8,VITELMA,BOGOTA D.C.,"BOGOTA, D.C",META,4.575,-74.072,Temp Aire 2 m,°C
631,0022025501,0068,2019-05-11T05:50:00.000,15.07634,ATACO  - AUT,TOLIMA,ATACO,SALDAÑA,3.416666667,-75.63305556,Temp Aire 2 m,°C
632,0026205501,0068,2018-12-26T23:40:00.000,18.90044,EL ROSARIO  - AUT,ANTIOQUIA,VENECIA,CAUCA,5.625830556,-75.70527778,Temp Aire 2 m,°C
633,0026155230,0068,2016-12-04T13:00:00.000,18.3,EMAS - AUT,CALDAS,MANIZALES,CAUCA,5.08525,-75.50713889,Temp Aire 2 m,°C
634,0026065501,0068,2016-07-25T01:50:00.000,16.1,JAMUNDI  - AUT,VALLE DEL CAUCA,JAMUNDÍ,CAUCA,3.215580556,-76.68021944,Temp Aire 2 m,°C
635,0021205502,0068,2018-02-02T03:10:00.000,15.15144,MISIONES  - AUT,CUNDINAMARCA,EL COLEGIO,ALTO MAGDALENA,4.544997222,-74.44055556,Temp Aire 2 m,°C
636,0026135501,0068,2019-06-29T21:55:00.000,20.00449,EL PILAMO  - AUT,RISARALDA,PEREIRA,CAUCA,4.868333333,-75.79333333,Temp Aire 2 m,°C
637,0022045502,0068,2017-11-05T14:00:00.000,24.84007,EL RUBY  - AUT,TOLIMA,PLANADAS,SALDAÑA,3.95,-75.66666667,Temp Aire 2 m,°C
638,0026085160,0068,2014-11-16T10:00:00.000,23.9,SILOE - AUT,VALLE DEL CAUCA,CALI,CAUCA,3.4255,-76.56061111,Temp Aire 2 m,°C
639,0026135502,0068,2018-09-08T08:10:00.000,16.30873,EL JAZMIN  - AUT,RISARALDA,SANTA ROSA DE CABAL,CAUCA,4.911944444,-75.62416389,Temp Aire 2 m,°C
640,0021206810,0068,2015-05-22T03:00:00.000,15.6,SAN BENITO - FOPAE,BOGOTA D.C.,"BOGOTA, D.C",ALTO MAGDALENA,4.55,-74.233,Temp Aire 2 m,°C
641,0029045190,0068,2016-03-06T11:00:00.000,32.7,APTO ERNESTO CORTIZOS TX GPRS,ATLÁNTICO,SOLEDAD,BAJO MAGDALENA,10.918,-74.78,Temp Aire 2 m,°C
642,0021195160,0068,2011-02-07T17:00:00.000,17.4,SUBIA,CUNDINAMARCA,SILVANIA,ALTO MAGDALENA,4.477,-74.384,Temp Aire 2 m,°C
643,0026145507,0068,2017-07-30T16:40:00.000,22.41431,LAS TANGAS  - AUT,CALDAS,BELALCAZAR,CAUCA,5.038,-75.80599722,Temp Aire 2 m,°C
644,0026155230,0068,2014-08-13T09:00:00.000,17.7,EMAS - AUT,CALDAS,MANIZALES,CAUCA,5.08525,-75.50713889,Temp Aire 2 m,°C
645,0023025501,0068,2018-10-10T15:55:00.000,22.29524,MANZANARES  - AUT,CALDAS,MANZANARES,MEDIO MAGDALENA,5.163913889,-75.11740833,Temp Aire 2 m,°C
646,2120000106,0068,2019-08-13T13:56:00.000,12.35,GRAN BRETAÑA - AUT,BOGOTA D.C.,"BOGOTA, D.C",ALTO MAGDALENA,4.512,-74.164,Temp Aire 2 m,°C
647,0026175502,0068,2019-01-25T07:30:00.000,22.41018,LA CRISTALINA  - AUT,ANTIOQUIA,TÁMESIS,CAUCA,5.7,-75.65999722,Temp Aire 2 m,°C
648,0013035501,0068,2015-11-26T17:00:00.000,31.6,APTO LOS GARZONES,CÓRDOBA,MONTERÍA,SINÚ,8.826,-75.825,Temp Aire 2 m,°C
649,0021215501,0068,2019-05-18T17:00:00.000,21.96143,ESPERANZA LA  - AUT,TOLIMA,IBAGUÉ,ALTO MAGDALENA,4.45,-75.25,Temp Aire 2 m,°C
650,0024055070,0068,2012-11-30T17:00:00.000,22,SAN  VICENTE DE CHUCURI  - AUT,SANTANDER,SAN VICENTE DE CHUCURÍ,MEDIO MAGDALENA,6.823388889,-73.47205556,Temp Aire 2 m,°C
651,0023195230,0068,2015-12-19T13:00:00.000,28.7,NEOMUNDO - AUT,SANTANDER,BUCARAMANGA,MEDIO MAGDALENA,7.102611111,-73.10730556,Temp Aire 2 m,°C
652,0021206780,0068,2012-03-01T08:35:00.000,17.3,LA INDEPENDENCIA FOPAE Fuera de Servicio,BOGOTA D.C.,"BOGOTA, D.C",ALTO MAGDALENA,4.617,-74.317,Temp Aire 2 m,°C
653,0021202230,0068,2011-11-01T21:40:00.000,14.5,UAN SEDE USME - FOPAE,BOGOTA D.C.,"BOGOTA, D.C",ALTO MAGDALENA,4.467,-74.117,Temp Aire 2 m,°C
654,0036015501,0068,2018-08-18T13:35:00.000,24.88234,TAMARA  - AUT,CASANARE,TÁMARA,CASANARE,5.872219444,-72.11944167,Temp Aire 2 m,°C
655,0026155502,0068,2016-09-01T20:00:00.000,19.6,CENICAFE  - AUT,CALDAS,MANIZALES,CAUCA,4.991111111,-75.59749722,Temp Aire 2 m,°C
656,0028025502,0068,2019-01-25T06:00:00.000,23.4,APTO ALFONSO LOPEZ,CESAR,VALLEDUPAR,CESAR,10.436,-73.248,Temp Aire 2 m,°C
657,2120700038,0068,2019-07-13T23:09:00.000,13.34,SAN FRANCISCO - AUT,BOGOTA D.C.,"BOGOTA, D.C",ALTO MAGDALENA,4.562,-74.149,Temp Aire 2 m,°C
658,0026145506,0068,2018-09-09T13:40:00.000,31.34794,FILO BONITO  - AUT,CALDAS,BELALCAZAR,CAUCA,4.986358333,-75.84574722,Temp Aire 2 m,°C
659,0028025130,0068,2018-09-08T13:00:00.000,31,LA LOMA CARBONES - AUT,CESAR,EL PASO,CESAR,9.640611111,-73.52394444,Temp Aire 2 m,°C
660,0052055502,0068,2019-07-30T13:15:00.000,30.25997,SANDONA  - AUT,NARIÑO,SANDONÁ,PATÍA,1.300888889,-77.46035833,Temp Aire 2 m,°C
661,0027015320,0068,2012-03-18T00:00:00.000,9.2,ARAGON - AUT,ANTIOQUIA,SANTA ROSA DE OSOS,NECHÍ,6.781083333,-75.560888889,Temp Aire 2 m,°C
662,0026095320,0068,2010-08-13T04:00:00.000,18.7,EL VINCULO - AUT,VALLE DEL CAUCA,BUGA,CAUCA,3.834805556,-76.30000556,Temp Aire 2 m,°C
663,0026125507,0068,2017-03-23T10:55:00.000,27.5,ARTURO GOMEZ  - AUT,VALLE DEL CAUCA,ALCALÁ,CAUCA,4.671388889,-75.77721944,Temp Aire 2 m,°C
664,0026155250,0068,2016-08-21T21:00:00.000,2.5,PARAMO CONEJERAS  - AUT,CALDAS,VILLAMARIA,CAUCA,4.829805556,-75.37583333,Temp Aire 2 m,°C
665,0035085070,0068,2016-10-27T06:00:00.000,19.1,SANTA MARIA - AUT,BOYACÁ,SANTA MARÍA,META,4.84125,-73.25669444,Temp Aire 2 m,°C
666,0026175501,0068,2017-06-23T15:40:00.000,26.13793,RAFAEL ESCOBAR  - AUT,CALDAS,SUPIA,CAUCA,5.45,-75.63305556,Temp Aire 2 m,°C
667,0021202200,0068,2014-02-05T08:50:00.000,16.2,VITELMA,BOGOTA D.C.,"BOGOTA, D.C",META,4.575,-74.072,Temp Aire 2 m,°C
668,0026205501,0068,2016-06-30T02:15:00.000,19.8,EL ROSARIO  - AUT,ANTIOQUIA,VENECIA,CAUCA,5.625830556,-75.70527778,Temp Aire 2 m,°C
669,0021201200,0068,2011-10-15T20:20:00.000,8.76,ESC LA UNION - FOPAE,BOGOTA D.C.,"BOGOTA, D.C",ALTO MAGDALENA,4.343,-74.184,Temp Aire 2 m,°C
670,0027015501,0068,2017-12-30T05:55:00.000,16.5289,YOLOMBO  - AUT,ANTIOQUIA,YOLOMBÓ,NECHÍ,6.580958333,-75.11487778,Temp Aire 2 m,°C
671,0024035370,0068,2008-11-04T19:00:00.000,8,EL ESPINO - AUT,BOYACÁ,EL ESPINO,SOGAMOSO,6.506722222,-72.45266667,Temp Aire 2 m,°C
672,0026125509,0068,2018-07-25T17:35:00.000,23.3495,ESPERANZA LA  - AUT,QUINDÍO,PIJAO,CAUCA,4.299444444,-75.72508056,Temp Aire 2 m,°C
673,2120000102,0068,2019-08-08T19:08:00.000,14,COLEGIO CARLOS PIZARRO - AUT,BOGOTA D.C.,"BOGOTA, D.C",ALTO MAGDALENA,4.635,-74.205,Temp Aire 2 m,°C
674,0036015501,0068,2019-05-28T06:10:00.000,21.44528,TAMARA  - AUT,CASANARE,TÁMARA,CASANARE,5.872219444,-72.11944167,Temp Aire 2 m,°C
675,0021202230,0068,2015-12-28T00:10:00.000,10.8,UAN SEDE USME - FOPAE,BOGOTA D.C.,"BOGOTA, D.C",ALTO MAGDALENA,4.467,-74.117,Temp Aire 2 m,°C
676,2120000102,0068,2019-06-29T13:09:00.000,15.62,COLEGIO CARLOS PIZARRO - AUT,BOGOTA D.C.,"BOGOTA, D.C",ALTO MAGDALENA,4.635,-74.205,Temp Aire 2 m,°C
677,0011025501,0068,2019-06-03T09:50:00.000,25.4827,CARMEN DE ATRATO  - AUT,CHOCO,EL CARMEN,ATRATO - DARIÉN,5.888719444,-76.14516667,Temp Aire 2 m,°C
678,0026125506,0068,2018-03-27T08:20:00.000,22.88892,EL AGRADO  - AUT,QUINDÍO,MONTENEGRO,CAUCA,4.518333333,-75.7925,Temp Aire 2 m,°C
679,0026135502,0068,2017-08-20T17:25:00.000,19.63939,EL JAZMIN  - AUT,RISARALDA,SANTA ROSA DE CABAL,CAUCA,4.911944444,-75.62416389,Temp Aire 2 m,°C
680,0026125508,0068,2019-01-21T22:55:00.000,20.41378,LACATALINA  - AUT,RISARALDA,PEREIRA,CAUCA,4.7475,-75.73805556,Temp Aire 2 m,°C
681,0026175501,0068,2017-10-14T03:45:00.000,19.6361,RAFAEL ESCOBAR  - AUT,CALDAS,SUPIA,CAUCA,5.45,-75.63305556,Temp Aire 2 m,°C
682,0023065501,0068,2018-09-26T22:10:00.000,17.52024,PACHO  - AUT,CUNDINAMARCA,PACHO,MEDIO MAGDALENA,5.129127778,-74.15769722,Temp Aire 2 m,°C
683,0021202170,0068,2014-11-01T10:35:00.000,19.5,SIERRA MORENA - FOPAE,BOGOTA D.C.,"BOGOTA, D.C",ALTO MAGDALENA,4.567,-74.167,Temp Aire 2 m,°C
684,0052055501,0068,2017-08-15T12:45:00.000,28.62274,OSPINA PEREZ  - AUT,NARIÑO,CONSACÁ,PATÍA,1.254722222,-77.48777778,Temp Aire 2 m,°C
685,0026185501,0068,2017-12-27T07:05:00.000,16.04395,SONSON  - AUT,ANTIOQUIA,SONSÓN,CAUCA,5.677719444,-75.34780556,Temp Aire 2 m,°C
686,0035025501,0068,2018-12-14T02:05:00.000,15.81124,QUETAME  - AUT,CUNDINAMARCA,QUETAME,META,4.297941667,-73.87238889,Temp Aire 2 m,°C
687,0026125506,0068,2017-10-30T21:05:00.000,18.91352,EL AGRADO  - AUT,QUINDÍO,MONTENEGRO,CAUCA,4.518333333,-75.7925,Temp Aire 2 m,°C
688,0026065502,0068,2017-09-15T21:15:00.000,17.10242,TRINIDAD LA  - AUT,CAUCA,PIENDAMÓ,CAUCA,2.750555556,-76.57916667,Temp Aire 2 m,°C
689,0026125503,0068,2018-05-15T08:45:00.000,22.37367,LA SIRENA  - AUT,VALLE DEL CAUCA,SEVILLA,CAUCA,4.285,-75.9025,Temp Aire 2 m,°C
690,0021206810,0068,2012-09-11T16:25:00.000,17.4,SAN BENITO - FOPAE,BOGOTA D.C.,"BOGOTA, D.C",ALTO MAGDALENA,4.55,-74.233,Temp Aire 2 m,°C
691,0021215150,0068,2018-07-28T01:00:00.000,0.6,NEVADO DEL TOLIMA  - AUT,TOLIMA,ANZOÁTEGUI,ALTO MAGDALENA,4.670777778,-75.32777778,Temp Aire 2 m,°C
692,0016025503,0068,2018-07-25T07:35:00.000,17.26168,GRAMALOTE  - AUT,NORTE DE SANTANDER,GRAMALOTE,CATATUMBO,7.923163889,-72.83375556,Temp Aire 2 m,°C
693,0021215150,0068,2011-02-04T19:00:00.000,2.6,NEVADO DEL TOLIMA  - AUT,TOLIMA,ANZOÁTEGUI,ALTO MAGDALENA,4.670777778,-75.32777778,Temp Aire 2 m,°C
694,0026155270,0068,2018-06-21T03:00:00.000,7.6,SAN ANTONIO CALDAS - AUT,CALDAS,VILLAMARIA,CAUCA,4.886611111,-75.42897222,Temp Aire 2 m,°C
695,0021255160,0068,2016-10-08T15:00:00.000,35.5,HACIENDA PAJONALES,TOLIMA,AMBALEMA,ALTO MAGDALENA,4.760722222,-74.83425,Temp Aire 2 m,°C
696,0026065501,0068,2018-11-20T22:30:00.000,19.56303,JAMUNDI  - AUT,VALLE DEL CAUCA,JAMUNDÍ,CAUCA,3.215580556,-76.68021944,Temp Aire 2 m,°C
697,0021045501,0068,2018-11-16T01:15:00.000,17.83324,OPORAPA  - AUT,HUILA,OPORAPA,ALTO MAGDALENA,2.041941667,-76.01191667,Temp Aire 2 m,°C
698,0035025501,0068,2017-12-03T19:35:00.000,16.47031,QUETAME  - AUT,CUNDINAMARCA,QUETAME,META,4.297941667,-73.87238889,Temp Aire 2 m,°C
699,0052055501,0068,2018-11-02T19:20:00.000,18.02836,OSPINA PEREZ  - AUT,NARIÑO,CONSACÁ,PATÍA,1.254722222,-77.48777778,Temp Aire 2 m,°C
700,0024035501,0068,2017-10-09T17:55:00.000,18.85665,ARATOCA  - AUT,SANTANDER,ARATOCA,SOGAMOSO,6.70155,-73.06749167,Temp Aire 2 m,°C
701,0035085080,0068,2013-04-09T04:00:00.000,16.3,LA CAPILLA - AUT,BOYACÁ,LA CAPILLA,META,5.099194444,-73.436,Temp Aire 2 m,°C
702,0016025503,0068,2016-07-10T11:30:00.000,24.3,GRAMALOTE  - AUT,NORTE DE SANTANDER,GRAMALOTE,CATATUMBO,7.923163889,-72.83375556,Temp Aire 2 m,°C
703,0021202230,0068,2013-01-06T02:05:00.000,9.6,UAN SEDE USME - FOPAE,BOGOTA D.C.,"BOGOTA, D.C",ALTO MAGDALENA,4.467,-74.117,Temp Aire 2 m,°C
704,0011159010,0068,2014-07-28T16:00:00.000,31.4,CAPURGANA - TX GPRS,CHOCÓ,ACANDÍ,ATRATO - DARIÉN,8.616,-77.331,Temp Aire 2 m,°C
705,0021209940,0068,2015-01-30T03:20:00.000,10.6,GRAVILLERAS - FOPAE,BOGOTA D.C.,"BOGOTA, D.C",ALTO MAGDALENA,4.533,-74.117,Temp Aire 2 m,°C
706,0021201200,0068,2011-11-19T03:40:00.000,7.43,ESC LA UNION - FOPAE,BOGOTA D.C.,"BOGOTA, D.C",ALTO MAGDALENA,4.343,-74.184,Temp Aire 2 m,°C
707,0035185010,0068,2011-03-25T02:00:00.000,21.8,LA PALOMERA - AUT,META,PUERTO LÓPEZ,META,4.260361111,-72.56447222,Temp Aire 2 m,°C
708,0026125509,0068,2018-09-16T05:55:00.000,14.29866,ESPERANZA LA  - AUT,QUINDÍO,PIJAO,CAUCA,4.299444444,-75.72508056,Temp Aire 2 m,°C
709,0026065501,0068,2017-06-22T00:15:00.000,17.40263,JAMUNDI  - AUT,VALLE DEL CAUCA,JAMUNDÍ,CAUCA,3.215580556,-76.68021944,Temp Aire 2 m,°C
710,0026055501,0068,2018-01-08T07:35:00.000,16.47787,GINEBRA  - AUT,VALLE DEL CAUCA,GINEBRA,CAUCA,3.738388889,-76.22083056,Temp Aire 2 m,°C
711,0026135503,0068,2016-08-03T02:10:00.000,16.9,NARANJAL  - AUT,CALDAS,CHINCHINA,CAUCA,4.971944444,-75.65221944,Temp Aire 2 m,°C
712,0021015050,0068,2006-02-02T20:00:00.000,16.8,PURACE  - AUT,HUILA,SAN AGUSTÍN,ALTO MAGDALENA,1.925916667,-76.42755556,Temp Aire 2 m,°C
713,0021202240,0068,2012-12-15T20:25:00.000,14.31,UAN SEDE CIRCUNVALAR - FOPAE,BOGOTA D.C.,"BOGOTA, D.C",ALTO MAGDALENA,4.633,-74.05,Temp Aire 2 m,°C
714,0024015503,0068,2018-05-02T12:25:00.000,25.17485,CONFINES  - AUT,SANTANDER,CONFINES,SOGAMOSO,6.373027778,-73.20760833,Temp Aire 2 m,°C
715,0016015110,0068,2010-10-18T14:00:00.000,30.7,UNIVERSIDAD FRANCISO DE PAULA SANTANDER - AUT,NORTE DE SANTANDER,CÚCUTA,CATATUMBO,7.898777778,-72.48716667,Temp Aire 2 m,°C
716,0024035430,0068,2014-05-01T06:00:00.000,11,TUNGUAVITA - AUT,BOYACÁ,PAIPA,SOGAMOSO,5.745916667,-73.11636111,Temp Aire 2 m,°C
717,2120000107,0068,2019-02-28T10:33:00.000,18.14,LA FISCALA - AUT,BOGOTA D.C.,"BOGOTA, D.C",ALTO MAGDALENA,4.536,-74.106,Temp Aire 2 m,°C
718,2120000102,0068,2019-03-25T01:21:00.000,10.09,COLEGIO CARLOS PIZARRO - AUT,BOGOTA D.C.,"BOGOTA, D.C",ALTO MAGDALENA,4.635,-74.205,Temp Aire 2 m,°C
719,0035035100,0068,2018-09-18T00:00:00.000,21.6,ICA VILLAVICENCIO  - AUT,META,VILLAVICENCIO,META,4.137388889,-73.625,Temp Aire 2 m,°C
720,0021202230,0068,2013-06-30T01:45:00.000,13.2,UAN SEDE USME - FOPAE,BOGOTA D.C.,"BOGOTA, D.C",ALTO MAGDALENA,4.467,-74.117,Temp Aire 2 m,°C
721,0023065501,0068,2016-08-21T09:45:00.000,24.1,PACHO  - AUT,CUNDINAMARCA,PACHO,MEDIO MAGDALENA,5.129127778,-74.15769722,Temp Aire 2 m,°C
722,0021206940,0068,2010-08-08T07:00:00.000,11.8,CIUDAD BOLIVAR,BOGOTA D.C.,"BOGOTA, D.C",ALTO MAGDALENA,4.577,-74.177,Temp Aire 2 m,°C
